NOV_ISSUED_DATE,NOV_NUMBER,"Street Address",City,State,VIOLATION_DESCRIPTION,Latitude,Longitude,"Accuracy Score","Accuracy Type",Number,Street,"Unit Type","Unit Number",City,State,County,Zip,Country,Source
6/7/2019,P005644219,"1200 S INDEPENDENCE ",CHICAGO,Illinois,"8-4-081(a)     Public Urination",41.866089,-87.720123,1,range_interpolation,1200,"S Independence Blvd",,,Chicago,IL,"Cook County",60623,US,"TIGER/Line® dataset from the US Census Bureau"
6/7/2019,P005643056,"1600 S HOMAN ",CHICAGO,Illinois,"8-4-081(a)     Public Urination",41.858907,-87.710683,1,rooftop,1600,"S Homan Ave",,,Chicago,IL,"Cook County",60623,US,"City of Chicago"
6/7/2019,P005670790,"300 N CENTRAL ",CHICAGO,Illinois,"8-4-081(a)     Public Urination",41.885945,-87.765466,1,rooftop,300,"N Central Ave",,,Chicago,IL,"Cook County",60644,US,"City of Chicago"
6/7/2019,P005789176,"900 W ADDISON ST ",CHICAGO,Illinois,"8-4-081(a)     Public Urination",41.947135,-87.651902,1,range_interpolation,900,"W Addison St",,,Chicago,IL,"Cook County",60613,US,"TIGER/Line® dataset from the US Census Bureau"
6/7/2019,P005785087,"2100 W NORTH AVE ",CHICAGO,Illinois,"8-4-081(a)     Public Urination",41.910696,-87.680141,1,rooftop,2100,"W North Ave",,,Chicago,IL,"Cook County",60622,US,"City of Chicago"
6/7/2019,P005806119,"6200 S CLAREMONT ",CHICAGO,Illinois,"8-4-081(a)     Public Urination",41.780918,-87.682745,1,rooftop,6200,"S Claremont Ave",,,Chicago,IL,"Cook County",60629,US,"City of Chicago"
6/7/2019,P005751395,"7900 S LAFAYETTE ",CHICAGO,Illinois,"8-4-081(a)     Public Urination",41.750775,-87.625823,1,range_interpolation,7900,"S Lafayette Ave",,,Chicago,IL,"Cook County",60620,US,"TIGER/Line® dataset from the US Census Bureau"
6/7/2019,P005770550,"7400 S STEWART ",CHICAGO,Illinois,"8-4-081(a)     Public Urination",41.759673,-87.634894,1,rooftop,7400,"S Stewart Ave",,,Chicago,IL,"Cook County",60621,US,"City of Chicago"
6/7/2019,P005770581,"7400 S HALSTED ",CHICAGO,Illinois,"8-4-081(a)     Public Urination",41.759575,-87.644647,1,rooftop,7400,"S Halsted St",,,Chicago,IL,"Cook County",60621,US,"City of Chicago"
6/7/2019,P005752243,"2000 S LEAVITT ",CHICAGO,Illinois,"8-4-081(a)     Public Urination",41.854735,-87.681171,1,rooftop,2000,"S Leavitt St",,,Chicago,IL,"Cook County",60608,US,"City of Chicago"
6/7/2019,P005821959,"8700 S HALSTED ",CHICAGO,Illinois,"8-4-081(a)     Public Urination",41.735704,-87.643931,1,rooftop,8700,"S Halsted St",,,Chicago,IL,"Cook County",60620,US,"City of Chicago"
6/7/2019,P005795325,"300 W 75 ST ",CHICAGO,Illinois,"8-4-081(a)     Public Urination",41.758253,-87.632289,1,rooftop,300,"W 75th St",,,Chicago,IL,"Cook County",60621,US,Cook
6/8/2019,P005114496,"1600 W 81ST ",CHICAGO,Illinois,"8-4-081(a)     Public Urination",41.746564,-87.663344,1,range_interpolation,1600,"W 81st Pl",,,Chicago,IL,"Cook County",60620,US,"TIGER/Line® dataset from the US Census Bureau"
6/8/2019,P005267530,"6900 S CAMPBELL ",CHICAGO,Illinois,"8-4-081(a)     Public Urination",41.768041,-87.685958,1,rooftop,6900,"S Campbell Ave",,,Chicago,IL,"Cook County",60629,US,"City of Chicago"
6/8/2019,P005533518,"3200 N KIMBALL ",CHICAGO,Illinois,"8-4-081(a)     Public Urination",41.939544,-87.712841,1,rooftop,3200,"N Kimball Ave",,,Chicago,IL,"Cook County",60618,US,"City of Chicago"
6/8/2019,P005678769,"600 N FAIRBANKS ",CHICAGO,Illinois,"8-4-081(a)     Public Urination",41.893001,-87.620654,1,rooftop,600,"N Fairbanks Ct",,,Chicago,IL,"Cook County",60611,US,"City of Chicago"
6/8/2019,P005686424,"6400 S KING DR ",CHICAGO,Illinois,"8-4-081(a)     Public Urination",41.778272,-87.615581,1,range_interpolation,6400,"S King Dr",,,Chicago,IL,"Cook County",60637,US,"TIGER/Line® dataset from the US Census Bureau"
6/8/2019,P005668096,"4700 N LAKE SHORE DR ",CHICAGO,Illinois,"8-4-081(a)     Public Urination",41.967744,-87.649684,0.9,rooftop,4700,"N Marine Dr",,,Chicago,IL,"Cook County",60613,US,"City of Chicago"
6/8/2019,P005699786,"900 W 71ST ST ",CHICAGO,Illinois,"8-4-081(a)     Public Urination",41.765433,-87.647147,1,rooftop,900,"W 71st St",,,Chicago,IL,"Cook County",60621,US,"City of Chicago"
6/8/2019,P005642800,"3800 W ROOSEVELT ",CHICAGO,Illinois,"8-4-081(a)     Public Urination",41.866089,-87.720123,1,range_interpolation,3800,"W Roosevelt Rd",,,Chicago,IL,"Cook County",60624,US,"TIGER/Line® dataset from the US Census Bureau"
6/8/2019,P005643494,"4800 S SEELEY ",CHICAGO,Illinois,"8-4-081(a)     Public Urination",41.806547,-87.676196,1,rooftop,4800,"S Seeley Ave",,,Chicago,IL,"Cook County",60609,US,Cook
6/8/2019,P005724789,"6700 S ASHLAND ",CHICAGO,Illinois,"8-4-081(a)     Public Urination",41.771999,-87.664406,1,rooftop,6700,"S Ashland Ave",,,Chicago,IL,"Cook County",60636,US,"City of Chicago"
6/8/2019,P005728642,"500 N WELLS ST ",CHICAGO,Illinois,"8-4-081(a)     Public Urination",41.890964,-87.634334,1,rooftop,500,"N Wells St",,,Chicago,IL,"Cook County",60610,US,"City of Chicago"
6/8/2019,P005627101,"5400  NEW ENGLAND ",CHICAGO,Illinois,"8-4-081(a)     Public Urination",41.978855,-87.799101,0.9,rooftop,5400,"N New England Ave",,,Chicago,IL,"Cook County",60656,US,"City of Chicago"
6/8/2019,P005852816,"1600 W 44TH ST ",CHICAGO,Illinois,"8-4-081(a)     Public Urination",41.813909,-87.665109,1,range_interpolation,1600,"W 44th St",,,Chicago,IL,"Cook County",60609,US,"TIGER/Line® dataset from the US Census Bureau"
6/8/2019,P005852819,"4000 S SACRAMENTO ",CHICAGO,Illinois,"8-4-081(a)     Public Urination",41.820728,-87.699533,1,range_interpolation,4000,"S Sacramento Ave",,,Chicago,IL,"Cook County",60632,US,"TIGER/Line® dataset from the US Census Bureau"
6/8/2019,P005845551,"200 S DEARBORN ST ",CHICAGO,Illinois,"8-4-081(a)     Public Urination",41.879288,-87.629351,1,range_interpolation,200,"S Dearborn St",,,Chicago,IL,"Cook County",60605,US,"TIGER/Line® dataset from the US Census Bureau"
6/8/2019,P005845553,"200 N STATE ST ",CHICAGO,Illinois,"8-4-081(a)     Public Urination",41.885898,-87.627939,1,range_interpolation,200,"N State St",,,Chicago,IL,"Cook County",60601,US,"TIGER/Line® dataset from the US Census Bureau"
6/8/2019,P005770313,"8000 S ASHLAND ",CHICAGO,Illinois,"8-4-081(a)     Public Urination",41.748384,-87.663772,1,rooftop,8000,"S Ashland Ave",,,Chicago,IL,"Cook County",60620,US,"City of Chicago"
6/8/2019,P005770667,"8100 S COTTAGE ",CHICAGO,Illinois,"8-4-081(a)     Public Urination",41.747405,-87.605514,0.9,rooftop,8100,"S Cottage Grove Ave",,,Chicago,IL,"Cook County",60619,US,"City of Chicago"
6/8/2019,P005770943,"7000 S HALSTED ",CHICAGO,Illinois,"8-4-081(a)     Public Urination",41.766863,-87.644829,1,rooftop,7000,"S Halsted St",,,Chicago,IL,"Cook County",60621,US,"City of Chicago"
6/8/2019,P005821960,"9500 S PARNELL ",CHICAGO,Illinois,"8-4-081(a)     Public Urination",41.721423,-87.637157,1,range_interpolation,9500,"S Parnell Ave",,,Chicago,IL,"Cook County",60628,US,"TIGER/Line® dataset from the US Census Bureau"
6/8/2019,P005918789,"1500 S CHRISTIANA ",CHICAGO,Illinois,"8-4-081(a)     Public Urination",41.860716,-87.709517,1,rooftop,1500,"S Christiana Ave",,,Chicago,IL,"Cook County",60623,US,"City of Chicago"
6/8/2019,P005911493,"7900 S SOUTH SHORE DR ",CHICAGO,Illinois,"8-4-081(a)     Public Urination",41.751715,-87.548385,1,rooftop,7900,"S South Shore Dr",,,Chicago,IL,"Cook County",60617,US,"City of Chicago"
6/8/2019,P005911494,"7900 S SOUTH SHORE ",CHICAGO,Illinois,"8-4-081(a)     Public Urination",41.751715,-87.548385,1,rooftop,7900,"S South Shore Dr",,,Chicago,IL,"Cook County",60617,US,"City of Chicago"
6/8/2019,P005797142,"1600 W 32ND PL ",CHICAGO,Illinois,"8-4-081(a)     Public Urination",41.834608,-87.665667,1,range_interpolation,1600,"W 32nd Pl",,,Chicago,IL,"Cook County",60608,US,"TIGER/Line® dataset from the US Census Bureau"
6/8/2019,P005804027,"900 W ADDISON ",CHICAGO,Illinois,"8-4-081(a)     Public Urination",41.947135,-87.651902,1,range_interpolation,900,"W Addison St",,,Chicago,IL,"Cook County",60613,US,"TIGER/Line® dataset from the US Census Bureau"
6/8/2019,P005804030,"900 W ADDISON ",CHICAGO,Illinois,"8-4-081(a)     Public Urination",41.947135,-87.651902,1,range_interpolation,900,"W Addison St",,,Chicago,IL,"Cook County",60613,US,"TIGER/Line® dataset from the US Census Bureau"
6/8/2019,P005794765,"900 S PULASKI ",CHICAGO,Illinois,"8-4-081(a)     Public Urination",41.869875,-87.725318,1,range_interpolation,900,"S Pulaski Rd",,,Chicago,IL,"Cook County",60624,US,"TIGER/Line® dataset from the US Census Bureau"
6/8/2019,P005804024,"900 W ADDISON ",CHICAGO,Illinois,"8-4-081(a)     Public Urination",41.947135,-87.651902,1,range_interpolation,900,"W Addison St",,,Chicago,IL,"Cook County",60613,US,"TIGER/Line® dataset from the US Census Bureau"
6/8/2019,P005804025,"900 W ADDISON ",CHICAGO,Illinois,"8-4-081(a)     Public Urination",41.947135,-87.651902,1,range_interpolation,900,"W Addison St",,,Chicago,IL,"Cook County",60613,US,"TIGER/Line® dataset from the US Census Bureau"
6/9/2019,P005476491,"1600 W 81ST ST ",CHICAGO,Illinois,"8-4-081(a)     Public Urination",41.746564,-87.663344,1,range_interpolation,1600,"W 81st St",,,Chicago,IL,"Cook County",60620,US,"TIGER/Line® dataset from the US Census Bureau"
6/9/2019,P005508469,"7600 S ASHLAND ",CHICAGO,Illinois,"8-4-081(a)     Public Urination",41.755617,-87.664002,1,rooftop,7600,"S Ashland Ave",,,Chicago,IL,"Cook County",60620,US,Cook
6/9/2019,P005474455,"3400 N CLARK ST ",CHICAGO,Illinois,"8-4-081(a)     Public Urination",41.943823,-87.654025,1,rooftop,3400,"N Clark St",,,Chicago,IL,"Cook County",60657,US,"City of Chicago"
6/9/2019,P005668751,"4000 W CULLERTON ",CHICAGO,Illinois,"8-4-081(a)     Public Urination",41.854262,-87.724832,1,range_interpolation,4000,"W Cullerton St",,,Chicago,IL,"Cook County",60623,US,"TIGER/Line® dataset from the US Census Bureau"
6/9/2019,P005668288,"3200 N CLARK ",CHICAGO,Illinois,"8-4-081(a)     Public Urination",41.940259,-87.651361,1,rooftop,3200,"N Clark St",,,Chicago,IL,"Cook County",60657,US,"City of Chicago"
6/9/2019,P005650530,"5700 N NATOMA ",CHICAGO,Illinois,"8-4-081(a)     Public Urination",41.985229,-87.794165,1,rooftop,5700,"N Natoma Ave",,,Chicago,IL,"Cook County",60631,US,"City of Chicago"
6/9/2019,P005642976,"1200 S KOMENSKY ",CHICAGO,Illinois,"8-4-081(a)     Public Urination",41.866004,-87.726388,1,range_interpolation,1200,"S Komensky Ave",,,Chicago,IL,"Cook County",60623,US,"TIGER/Line® dataset from the US Census Bureau"
6/9/2019,P005720576,"3900 W ROOSEVELT ",CHICAGO,Illinois,"8-4-081(a)     Public Urination",41.866429,-87.722898,1,rooftop,3900,"W Roosevelt Rd",,,Chicago,IL,"Cook County",60624,US,Cook
6/9/2019,P005787914,"5000 S KILDARE ",CHICAGO,Illinois,"8-4-081(a)     Public Urination",41.80217,-87.731124,1,rooftop,5000,"S Kildare Ave",,,Chicago,IL,"Cook County",60632,US,"City of Chicago"
6/9/2019,P005789813,"100 N STATE ",CHICAGO,Illinois,"10-8-526/98-126#2.7(a)  Indecent exposure: urinating or defe",41.880537,-87.62816,1,rooftop,100,"S State St",,,Chicago,IL,"Cook County",60603,US,"City of Chicago"
6/9/2019,P005789179,"900 W ADDISON ST ",CHICAGO,Illinois,"8-4-081(a)     Public Urination",41.947135,-87.651902,1,range_interpolation,900,"W Addison St",,,Chicago,IL,"Cook County",60613,US,"TIGER/Line® dataset from the US Census Bureau"
6/9/2019,P005721001,"3000 S ALBANY ",CHICAGO,Illinois,"8-4-081(a)     Public Urination",41.838975,-87.702782,1,rooftop,3000,"S Albany Ave",,,Chicago,IL,"Cook County",60623,US,"City of Chicago"
6/9/2019,P005720334,"7900 S HALSTED ",CHICAGO,Illinois,"8-4-081(a)     Public Urination",41.750403,-87.64442,1,rooftop,7900,"S Halsted St",,,Chicago,IL,"Cook County",60620,US,"City of Chicago"
6/9/2019,P005728451,"1500 S MICHIGAN ",CHICAGO,Illinois,"8-4-081(a)     Public Urination",41.861329,-87.624498,1,rooftop,1500,"S Michigan Ave",,,Chicago,IL,"Cook County",60605,US,"City of Chicago"
6/9/2019,P005732234,"800 N PULASKI RD ",CHICAGO,Illinois,"8-4-081(a)     Public Urination",41.895517,-87.726079,1,range_interpolation,800,"N Pulaski Rd",,,Chicago,IL,"Cook County",60651,US,"TIGER/Line® dataset from the US Census Bureau"
6/9/2019,P005727980,"10 N WACKER ",CHICAGO,Illinois,"8-4-081(a)     Public Urination",41.882053,-87.636919,1,range_interpolation,10,"N Wacker Dr",,,Chicago,IL,"Cook County",60606,US,"TIGER/Line® dataset from the US Census Bureau"
6/9/2019,P005789511,"100  UNKNOWN ",CHICAGO,Illinois,"8-4-081(a)     Public Urination",41.88531,-87.62213,0.33,place,,,,,Chicago,IL,"Cook County",60601,US,"TIGER/Line® dataset from the US Census Bureau"
6/9/2019,P005770781,"7900 S YALE ",CHICAGO,Illinois,"8-4-081(a)     Public Urination",41.750694,-87.630662,1,range_interpolation,7900,"S Yale Ave",,,Chicago,IL,"Cook County",60620,US,"TIGER/Line® dataset from the US Census Bureau"
6/9/2019,P005770348,"10500 S STATE ",CHICAGO,Illinois,"8-4-081(a)     Public Urination",41.703374,-87.623762,1,rooftop,10500,"S State St",,,Chicago,IL,"Cook County",60628,US,"City of Chicago"
6/9/2019,P005770412,"6300 S RACINE ",CHICAGO,Illinois,"8-4-081(a)     Public Urination",41.779457,-87.654501,1,range_interpolation,6300,"S Racine Ave",,,Chicago,IL,"Cook County",60636,US,"TIGER/Line® dataset from the US Census Bureau"
6/9/2019,P005912902,"2300 S MICHIGAN AVE ",CHICAGO,Illinois,"8-4-081(a)     Public Urination",41.850963,-87.623759,1,range_interpolation,2300,"S Michigan Ave",,,Chicago,IL,"Cook County",60616,US,"TIGER/Line® dataset from the US Census Bureau"
6/9/2019,P005811961,"5500 S LAWNDALE ",CHICAGO,Illinois,"8-4-081(a)     Public Urination",41.793162,-87.715809,1,range_interpolation,5500,"S Lawndale Ave",,,Chicago,IL,"Cook County",60629,US,"TIGER/Line® dataset from the US Census Bureau"
6/9/2019,P005793993,"5200 S KOLIN ",CHICAGO,Illinois,"8-4-081(a)     Public Urination",41.798475,-87.732246,1,rooftop,5200,"S Kolin Ave",,,Chicago,IL,"Cook County",60632,US,"City of Chicago"
6/9/2019,P005795165,"6500 S COTTAGE GROVE ",CHICAGO,Illinois,"8-4-081(a)     Public Urination",41.776628,-87.605848,1,range_interpolation,6500,"S Cottage Grove Ave",,,Chicago,IL,"Cook County",60637,US,"TIGER/Line® dataset from the US Census Bureau"
6/9/2019,P005804544,"900 W ADDISON ",CHICAGO,Illinois,"8-4-081(a)     Public Urination",41.947135,-87.651902,1,range_interpolation,900,"W Addison St",,,Chicago,IL,"Cook County",60613,US,"TIGER/Line® dataset from the US Census Bureau"
6/9/2019,P005909737,"3700 N CLARK ",CHICAGO,Illinois,"8-4-081(a)     Public Urination",41.949148,-87.658374,1,rooftop,3700,"N Clark St",,,Chicago,IL,"Cook County",60613,US,"City of Chicago"
6/10/2019,P005491024,"1000 W WILSON ",CHICAGO,Illinois,"8-4-081(a)     Public Urination",41.965279,-87.654786,1,range_interpolation,1000,"W Wilson Ave",,,Chicago,IL,"Cook County",60640,US,"TIGER/Line® dataset from the US Census Bureau"
6/10/2019,P005699546,"1000 W 72 ST ",CHICAGO,Illinois,"8-4-081(a)     Public Urination",41.763158,-87.649219,1,range_interpolation,1000,"W 72nd St",,,Chicago,IL,"Cook County",60621,US,"TIGER/Line® dataset from the US Census Bureau"
6/10/2019,P005686677,"9800 S AVENUE G ",CHICAGO,Illinois,"8-4-081(a)     Public Urination",41.717664,-87.533219,1,rooftop,9800,"S Ave H",,,Chicago,IL,"Cook County",60617,US,"City of Chicago"
6/10/2019,P005664146,"5500 S HALSTED ST ",CHICAGO,Illinois,"8-4-081(a)     Public Urination",41.793793,-87.64515,1,range_interpolation,5500,"S Halsted St",,,Chicago,IL,"Cook County",60621,US,"TIGER/Line® dataset from the US Census Bureau"
6/10/2019,P005689376,"4400 W GRAND AVE ",CHICAGO,Illinois,"8-4-081(a)     Public Urination",41.909886,-87.736198,1,range_interpolation,4400,"W Grand Ave",,,Chicago,IL,"Cook County",60639,US,"TIGER/Line® dataset from the US Census Bureau"
6/10/2019,P005658031,"2200 S ARCHER ",CHICAGO,Illinois,"8-4-081(a)     Public Urination",41.852658,-87.635826,1,rooftop,2200,"S Archer Ave",,,Chicago,IL,"Cook County",60616,US,"City of Chicago"
6/10/2019,P005771002,"7400 S STEWART ",CHICAGO,Illinois,"8-4-081(a)     Public Urination",41.759673,-87.634894,1,rooftop,7400,"S Stewart Ave",,,Chicago,IL,"Cook County",60621,US,"City of Chicago"
6/10/2019,P005765627,"5600 N BROADWAY ",CHICAGO,Illinois,"8-4-081(a)     Public Urination",41.983989,-87.660349,1,rooftop,5600,"N Broadway",,,Chicago,IL,"Cook County",60660,US,"City of Chicago"
6/10/2019,P005772432,"10 S LARAMIE ",CHICAGO,Illinois,"8-4-081(a)     Public Urination",41.880285,-87.755214,1,range_interpolation,10,"S Laramie Ave",,,Chicago,IL,"Cook County",60644,US,"TIGER/Line® dataset from the US Census Bureau"
6/10/2019,P005795293,"6100 S VERNON ",CHICAGO,Illinois,"8-4-081(a)     Public Urination",41.783756,-87.614457,1,range_interpolation,6100,"S Vernon Ave",,,Chicago,IL,"Cook County",60637,US,"TIGER/Line® dataset from the US Census Bureau"
6/11/2019,P005483919,"1500 W 94TH ST ",CHICAGO,Illinois,"8-4-081(a)     Public Urination",41.722917,-87.660289,1,range_interpolation,1500,"W 94th St",,,Chicago,IL,"Cook County",60620,US,"TIGER/Line® dataset from the US Census Bureau"
6/11/2019,P005566633,"500 E 47TH ST ",CHICAGO,Illinois,"8-4-081(a)     Public Urination",41.809628,-87.613648,1,rooftop,500,"E 47th St",,,Chicago,IL,"Cook County",60653,US,Cook
6/11/2019,P005451039,"10 S MASON AVE ",CHICAGO,Illinois,"8-4-081(a)     Public Urination",41.879669,-87.773408,1,rooftop,10,"S Mason Ave",,,Chicago,IL,"Cook County",60644,US,"City of Chicago"
6/11/2019,P005555888,"3300 W MONTROSE AVE ",CHICAGO,Illinois,"8-4-081(a)     Public Urination",41.961428,-87.710889,1,rooftop,3300,"W Montrose Ave",,,Chicago,IL,"Cook County",60625,US,"City of Chicago"
6/11/2019,P005685757,"7100 S SHORE DR ",CHICAGO,Illinois,"8-4-081(a)     Public Urination",41.765966,-87.562956,1,rooftop,7100,"S South Shore Dr",,,Chicago,IL,"Cook County",60619,US,"City of Chicago"
6/11/2019,P005682442,"2400 S SPAULDING ",CHICAGO,Illinois,"8-4-081(a)     Public Urination",41.847981,-87.707934,1,rooftop,2400,"S Spaulding Ave",,,Chicago,IL,"Cook County",60623,US,"City of Chicago"
6/11/2019,P005787151,"6900 S WESTERN ",CHICAGO,Illinois,"8-4-081(a)     Public Urination",41.768186,-87.683735,1,rooftop,6900,"S Western Ave",,,Chicago,IL,"Cook County",60629,US,"City of Chicago"
6/11/2019,P005627231,"4800 N MILWAUKEE ",CHICAGO,Illinois,"8-4-081(a)     Public Urination",41.967867,-87.761215,1,rooftop,4800,"N Milwaukee Ave",,,Chicago,IL,"Cook County",60630,US,"City of Chicago"
6/11/2019,P005770682,"7900 S COTTAGE GROVE ",CHICAGO,Illinois,"8-4-081(a)     Public Urination",41.751136,-87.605215,1,range_interpolation,7900,"S Cottage Grove Ave",,,Chicago,IL,"Cook County",60619,US,"TIGER/Line® dataset from the US Census Bureau"
6/11/2019,P005714530,"300 S PAULINA ",CHICAGO,Illinois,"8-4-081(a)     Public Urination",41.87736,-87.669499,1,rooftop,300,"S Paulina St",,,Chicago,IL,"Cook County",60612,US,"City of Chicago"
6/11/2019,P005917436,"7600 S JEFFERY BLVD ",CHICAGO,Illinois,"8-4-081(a)     Public Urination",41.759691,-87.581149,1,rooftop,7600,"S Jeffery Blvd",,,Chicago,IL,"Cook County",60649,US,"City of Chicago"
6/11/2019,P005794705,"3000 S DRAKE ",CHICAGO,Illinois,"8-4-081(a)     Public Urination",41.838786,-87.713773,1,rooftop,3000,"S Drake Ave",,,Chicago,IL,"Cook County",60623,US,"City of Chicago"
6/12/2019,P005451066,"4800 W FULTON ",CHICAGO,Illinois,"8-4-081(a)     Public Urination",41.886017,-87.745796,1,rooftop,4800,"W Fulton St",,,Chicago,IL,"Cook County",60644,US,"City of Chicago"
6/12/2019,P005600731,"100 N WABASH ",CHICAGO,Illinois,"8-4-081(a)     Public Urination",41.883372,-87.626229,1,range_interpolation,100,"N Wabash Ave",,,Chicago,IL,"Cook County",60611,US,"TIGER/Line® dataset from the US Census Bureau"
6/12/2019,P005581887,"6300 S VERNON ",CHICAGO,Illinois,"8-4-081(a)     Public Urination",41.78011,-87.61441,1,range_interpolation,6300,"S Vernon Ave",,,Chicago,IL,"Cook County",60637,US,"TIGER/Line® dataset from the US Census Bureau"
6/12/2019,P005699547,"5900 S ASHLAND ",CHICAGO,Illinois,"8-4-081(a)     Public Urination",41.786596,-87.664394,1,range_interpolation,5900,"S Ashland Ave",,,Chicago,IL,"Cook County",60636,US,"TIGER/Line® dataset from the US Census Bureau"
6/12/2019,P005688798,"3900 W MADISON ",CHICAGO,Illinois,"8-4-081(a)     Public Urination",41.881325,-87.723871,1,rooftop,3900,"W Madison St",,,Chicago,IL,"Cook County",60624,US,"City of Chicago"
6/12/2019,P005724976,"700 E 79TH ST ",CHICAGO,Illinois,"8-4-081(a)     Public Urination",41.751479,-87.607476,1,rooftop,700,"E 79th St",,,Chicago,IL,"Cook County",60619,US,"City of Chicago"
6/12/2019,P005701755,"100 S MICHIGAN ST ",CHICAGO,Illinois,"8-4-081(a)     Public Urination",41.880678,-87.624241,0.8,range_interpolation,100,"S Michigan Ave",,,Chicago,IL,"Cook County",60603,US,"TIGER/Line® dataset from the US Census Bureau"
6/12/2019,P005806121,"3100 W 62ND ST ",CHICAGO,Illinois,"8-4-081(a)     Public Urination",41.780675,-87.700751,1,range_interpolation,3100,"W 62nd St",,,Chicago,IL,"Cook County",60629,US,"TIGER/Line® dataset from the US Census Bureau"
6/12/2019,P005794500,"200 N STATE ",CHICAGO,Illinois,"8-4-081(a)     Public Urination",41.885898,-87.627939,1,range_interpolation,200,"N State St",,,Chicago,IL,"Cook County",60601,US,"TIGER/Line® dataset from the US Census Bureau"
6/12/2019,P005794501,"10 W DIVISION ",CHICAGO,Illinois,"8-4-081(a)     Public Urination",41.904089,-87.629138,1,rooftop,10,"W Division St",,,Chicago,IL,"Cook County",60610,US,Cook
6/12/2019,P005808036,"3400 W CHICAGO ",CHICAGO,Illinois,"8-4-081(a)     Public Urination",41.89573,-87.711605,1,rooftop,3400,"W Chicago Ave",,,Chicago,IL,"Cook County",60651,US,Cook
6/12/2019,P005844999,"200 W 63RD ST ",CHICAGO,Illinois,"8-4-081(a)     Public Urination",41.779836,-87.63015,1,range_interpolation,200,"W 63rd St",,,Chicago,IL,"Cook County",60621,US,"TIGER/Line® dataset from the US Census Bureau"
6/12/2019,P005845088,"100  UNKNOWN ",CHICAGO,Illinois,"8-4-081(a)     Public Urination",41.88531,-87.62213,0.33,place,,,,,Chicago,IL,"Cook County",60601,US,"TIGER/Line® dataset from the US Census Bureau"
6/12/2019,P005804910,"10 W 95TH ST ",CHICAGO,Illinois,"10-8-526/016-110-1.17  Urinating, Defecating or Causing the ",41.722795,-87.624737,0.81,nearest_rooftop_match,14,"W 95th St",,,Chicago,IL,"Cook County",60620,US,"City of Chicago"
6/12/2019,P005796573,"2100 S CHINA PL ",CHICAGO,Illinois,"8-4-081(a)     Public Urination",41.853733,-87.635412,1,range_interpolation,2100,"S China Pl",,,Chicago,IL,"Cook County",60616,US,"TIGER/Line® dataset from the US Census Bureau"
6/13/2019,P005332541,"1200 N CALIFORNIA ",CHICAGO,Illinois,"8-4-081(a)     Public Urination",41.903074,-87.696878,1,range_interpolation,1200,"N California Ave",,,Chicago,IL,"Cook County",60622,US,"TIGER/Line® dataset from the US Census Bureau"
6/13/2019,P005669662,"4700 N BROADWAY ",CHICAGO,Illinois,"8-4-081(a)     Public Urination",41.967362,-87.658632,1,range_interpolation,4700,"N Broadway St",,,Chicago,IL,"Cook County",60640,US,"TIGER/Line® dataset from the US Census Bureau"
6/13/2019,P005761630,"1300 S MILLARD ",CHICAGO,Illinois,"8-4-081(a)     Public Urination",41.864325,-87.716935,1,rooftop,1300,"S Millard Ave",,,Chicago,IL,"Cook County",60623,US,"City of Chicago"
6/13/2019,P005750867,"100 E 114TH ST ",CHICAGO,Illinois,"8-4-081(a)     Public Urination",41.687585,-87.604817,1,range_interpolation,100,"E 114th St",,,Chicago,IL,"Cook County",60628,US,"TIGER/Line® dataset from the US Census Bureau"
6/13/2019,P005731969,"3400 W CHICAGO ",CHICAGO,Illinois,"8-4-081(a)     Public Urination",41.89573,-87.711605,1,rooftop,3400,"W Chicago Ave",,,Chicago,IL,"Cook County",60651,US,Cook
6/13/2019,P005789279,"1100 S STATE ST ",CHICAGO,Illinois,"10-8-526/016-110-1.17  Urinating, Defecating or Causing the ",41.902092,-87.628557,1,rooftop,1100,"N State St",,,Chicago,IL,"Cook County",60610,US,"City of Chicago"
6/13/2019,P005844838,"10 E CERMAK ",CHICAGO,Illinois,"8-4-081(a)     Public Urination",41.853133,-87.626744,1,rooftop,10,"E Cermak Rd",,,Chicago,IL,"Cook County",60616,US,"City of Chicago"
6/13/2019,P005788991,"100 W LAKE ",CHICAGO,Illinois,"8-4-081(a)     Public Urination",41.90363,-87.908634,1,rooftop,100,"W Lake St",,,Northlake,IL,"Cook County",60164,US,Cook
6/13/2019,P005770861,"7900 S COTTAGE GR ",CHICAGO,Illinois,"8-4-081(a)     Public Urination",41.751136,-87.605215,0.8,range_interpolation,7900,"S Cottage Grove Ave",,,Chicago,IL,"Cook County",60619,US,"TIGER/Line® dataset from the US Census Bureau"
6/13/2019,P005918772,"3000 W ROOSEVELT RD ",CHICAGO,Illinois,"8-4-081(a)     Public Urination",41.866771,-87.700997,1,rooftop,3000,"W Roosevelt Rd",,,Chicago,IL,"Cook County",60612,US,"City of Chicago"
6/14/2019,P005328387,"6900 S ARTESIAN AVE ",CHICAGO,Illinois,"8-4-081(a)     Public Urination",41.76806,-87.68475,1,rooftop,6900,"S Artesian Ave",,,Chicago,IL,"Cook County",60629,US,"City of Chicago"
6/14/2019,P005332542,"3700 N KENMORE ",CHICAGO,Illinois,"8-4-081(a)     Public Urination",41.949174,-87.655593,1,range_interpolation,3700,"N Kenmore Ave",,,Chicago,IL,"Cook County",60613,US,"TIGER/Line® dataset from the US Census Bureau"
6/14/2019,P005332240,"1600 N WESTERN ",CHICAGO,Illinois,"8-4-081(a)     Public Urination",41.91047,-87.68722,1,range_interpolation,1600,"N Western Ave",,,Chicago,IL,"Cook County",60647,US,"TIGER/Line® dataset from the US Census Bureau"
6/14/2019,P005482095,"800 W 87TH ST ",CHICAGO,Illinois,"8-4-081(a)     Public Urination",41.736516,-87.643831,1,rooftop,800,"W 87th St",,,Chicago,IL,"Cook County",60620,US,"City of Chicago"
6/14/2019,P005505694,"10 W HUBBARD ST ",CHICAGO,Illinois,"8-4-081(a)     Public Urination",41.890303,-87.628623,1,rooftop,10,"W Hubbard St",,,Chicago,IL,"Cook County",60654,US,"City of Chicago"
6/14/2019,P005576199,"6900 N GLENWOOD ",CHICAGO,Illinois,"8-4-081(a)     Public Urination",42.006934,-87.666285,1,rooftop,6900,"N Glenwood Ave",,,Chicago,IL,"Cook County",60626,US,"City of Chicago"
6/14/2019,P005681367,"1600 W CULLERTON ",CHICAGO,Illinois,"8-4-081(a)     Public Urination",41.854914,-87.666072,1,range_interpolation,1600,"W Cullerton St",,,Chicago,IL,"Cook County",60608,US,"TIGER/Line® dataset from the US Census Bureau"
6/14/2019,P005663943,"7900 S HOYNE ",CHICAGO,Illinois,"8-4-081(a)     Public Urination",41.750049,-87.675579,1,range_interpolation,7900,"S Hoyne Ave",,,Chicago,IL,"Cook County",60620,US,"TIGER/Line® dataset from the US Census Bureau"
6/14/2019,P005668166,"4500 N KENMORE AVE ",CHICAGO,Illinois,"8-4-081(a)     Public Urination",41.963735,-87.656184,1,range_interpolation,4500,"N Kenmore Ave",,,Chicago,IL,"Cook County",60640,US,"TIGER/Line® dataset from the US Census Bureau"
6/14/2019,P005664827,"100 N STATE ",CHICAGO,Illinois,"8-4-081(a)     Public Urination",41.880537,-87.62816,1,rooftop,100,"S State St",,,Chicago,IL,"Cook County",60603,US,"City of Chicago"
6/14/2019,P005643793,"3000 S ALBANY ST ",CHICAGO,Illinois,"8-4-081(a)     Public Urination",41.838975,-87.702782,1,rooftop,3000,"S Albany Ave",,,Chicago,IL,"Cook County",60623,US,"City of Chicago"
6/14/2019,P005780766,"500 E 51ST ST ",CHICAGO,Illinois,"8-4-081(a)     Public Urination",41.802276,-87.614192,1,range_interpolation,500,"E 51st St",,,Chicago,IL,"Cook County",60615,US,"TIGER/Line® dataset from the US Census Bureau"
6/14/2019,P005717230,"10 E I 190 ",CHICAGO,Illinois,"8-4-081(a)     Public Urination",41.956796,-87.735145,0.7,nearest_rooftop_match,1,"Kennedy Expy",,,Chicago,IL,"Cook County",60641,US,"City of Chicago"
6/14/2019,P005781291,"200 E PERSHING RD ",CHICAGO,Illinois,"8-4-081(a)     Public Urination",41.824011,-87.621382,1,rooftop,200,"E Pershing Rd",,,Chicago,IL,"Cook County",60653,US,"City of Chicago"
6/14/2019,P005731970,"700 N HOMAN ",CHICAGO,Illinois,"8-4-081(a)     Public Urination",41.893822,-87.711759,1,rooftop,700,"N Homan Ave",,,Chicago,IL,"Cook County",60624,US,"City of Chicago"
6/14/2019,P005609869,"1500 W 60TH ST ",CHICAGO,Illinois,"8-4-081(a)     Public Urination",41.784812,-87.661925,1,range_interpolation,1500,"W 60th St",,,Chicago,IL,"Cook County",60636,US,"TIGER/Line® dataset from the US Census Bureau"
6/14/2019,P005806390,"7300 S BELL ",CHICAGO,Illinois,"8-4-081(a)     Public Urination",41.76095,-87.679733,1,rooftop,7300,"S Bell Ave",,,Chicago,IL,"Cook County",60629,US,"City of Chicago"
6/14/2019,P005806391,"2300 W 68TH ST ",CHICAGO,Illinois,"8-4-081(a)     Public Urination",41.770024,-87.680856,1,range_interpolation,2300,"W 68th St",,,Chicago,IL,"Cook County",60636,US,"TIGER/Line® dataset from the US Census Bureau"
6/14/2019,P005806387,"6700 S ROCKWELL ",CHICAGO,Illinois,"8-4-081(a)     Public Urination",41.771751,-87.688333,1,range_interpolation,6700,"S Rockwell St",,,Chicago,IL,"Cook County",60629,US,"TIGER/Line® dataset from the US Census Bureau"
6/14/2019,P005763106,"2200 N ORCHARD ",CHICAGO,Illinois,"8-4-081(a)     Public Urination",41.922002,-87.646214,1,range_interpolation,2200,"N Orchard St",,,Chicago,IL,"Cook County",60614,US,"TIGER/Line® dataset from the US Census Bureau"
6/14/2019,P005741807,"300 S WESTERN AVE ",CHICAGO,Illinois,"8-4-081(a)     Public Urination",41.877333,-87.686684,1,rooftop,300,"S Western Ave",,,Chicago,IL,"Cook County",60612,US,"City of Chicago"
6/14/2019,P005916796,"1000 W WAVELAND ",CHICAGO,Illinois,"8-4-081(a)     Public Urination",41.948892,-87.654383,1,range_interpolation,1000,"W Waveland Ave",,,Chicago,IL,"Cook County",60613,US,"TIGER/Line® dataset from the US Census Bureau"
6/14/2019,P005917156,"1000 W WAVELAND ",CHICAGO,Illinois,"8-4-081(a)     Public Urination",41.948892,-87.654383,1,range_interpolation,1000,"W Waveland Ave",,,Chicago,IL,"Cook County",60613,US,"TIGER/Line® dataset from the US Census Bureau"
6/15/2019,P005456259,"3300 W NORTH ",CHICAGO,Illinois,"8-4-081(a)     Public Urination",42.324027,-87.856704,0.33,place,,,,,"North Chicago",IL,"Lake County",60064,US,"TIGER/Line® dataset from the US Census Bureau"
6/15/2019,P005595592,"8700 S COLFAX AVE ",CHICAGO,Illinois,"8-4-081(a)     Public Urination",41.737109,-87.561154,1,range_interpolation,8700,"S Colfax Ave",,,Chicago,IL,"Cook County",60617,US,"TIGER/Line® dataset from the US Census Bureau"
6/15/2019,P005691338,"1000 W WAVELAND ",CHICAGO,Illinois,"8-4-081(a)     Public Urination",41.948892,-87.654383,1,range_interpolation,1000,"W Waveland Ave",,,Chicago,IL,"Cook County",60613,US,"TIGER/Line® dataset from the US Census Bureau"
6/15/2019,P005675706,"5500 S STATE ST ",CHICAGO,Illinois,"8-4-081(a)     Public Urination",41.794092,-87.626068,1,rooftop,5500,"S State St",,,Chicago,IL,"Cook County",60621,US,"City of Chicago"
6/15/2019,P005691566,"4600 N WESTERN ",CHICAGO,Illinois,"8-4-081(a)     Public Urination",41.965025,-87.689181,1,rooftop,4600,"N Western Ave",,,Chicago,IL,"Cook County",60625,US,"City of Chicago"
6/15/2019,P005661407,"4000 W GLADYS ",CHICAGO,Illinois,"8-4-081(a)     Public Urination",41.876447,-87.725744,1,rooftop,4000,"W Gladys Ave",,,Chicago,IL,"Cook County",60624,US,"City of Chicago"
6/15/2019,P005643116,"3200 W 16TH ST ",CHICAGO,Illinois,"8-4-081(a)     Public Urination",41.858933,-87.705455,1,range_interpolation,3200,"W 16th St",,,Chicago,IL,"Cook County",60623,US,"TIGER/Line® dataset from the US Census Bureau"
6/15/2019,P005786241,"1900 W NORTH ",CHICAGO,Illinois,"8-4-081(a)     Public Urination",42.324027,-87.856704,0.33,place,,,,,"North Chicago",IL,"Lake County",60064,US,"TIGER/Line® dataset from the US Census Bureau"
6/15/2019,P005606523,"6200 S MAPLEWOOD ",CHICAGO,Illinois,"8-4-081(a)     Public Urination",41.780899,-87.687708,1,rooftop,6200,"S Maplewood Ave",,,Chicago,IL,"Cook County",60629,US,"City of Chicago"
6/15/2019,P005606524,"6000 S KEDZIE ",CHICAGO,Illinois,"8-4-081(a)     Public Urination",41.784309,-87.703646,1,rooftop,6000,"S Kedzie Ave",,,Chicago,IL,"Cook County",60629,US,"City of Chicago"
6/15/2019,P005844840,"10 W 79 ",CHICAGO,Illinois,"8-4-081(a)     Public Urination",41.751074,-87.625901,1,range_interpolation,10,"W 79th Pl",,,Chicago,IL,"Cook County",60620,US,"TIGER/Line® dataset from the US Census Bureau"
6/15/2019,P005852952,"1300 W 16 ST ",CHICAGO,Illinois,"8-4-081(a)     Public Urination",41.859575,-87.658926,1,range_interpolation,1300,"W 16th St",,,Chicago,IL,"Cook County",60608,US,"TIGER/Line® dataset from the US Census Bureau"
6/15/2019,P005808006,"3900 W DIVERSEY ",CHICAGO,Illinois,"8-4-081(a)     Public Urination",41.932091,-87.724713,1,rooftop,3900,"W Diversey Ave",,,Chicago,IL,"Cook County",60618,US,"City of Chicago"
6/15/2019,P005794913,"3200 W NORTH AVE ",CHICAGO,Illinois,"8-4-081(a)     Public Urination",41.910322,-87.70702,1,rooftop,3200,"W North Ave",,,Chicago,IL,"Cook County",60647,US,"City of Chicago"
6/15/2019,P005806191,"2500 W 59TH ",CHICAGO,Illinois,"8-4-081(a)     Public Urination",41.786374,-87.686279,1,range_interpolation,2500,"W 59th St",,,Chicago,IL,"Cook County",60629,US,"TIGER/Line® dataset from the US Census Bureau"
6/15/2019,P005743890,"10 E 23RD ST ",CHICAGO,Illinois,"8-4-081(a)     Public Urination",41.851222,-87.626702,1,range_interpolation,10,"E 23rd St",,,Chicago,IL,"Cook County",60616,US,"TIGER/Line® dataset from the US Census Bureau"
6/15/2019,P005772433,"5200 W MADISON ",CHICAGO,Illinois,"8-4-081(a)     Public Urination",41.880222,-87.755066,1,range_interpolation,5200,"W Madison St",,,Chicago,IL,"Cook County",60644,US,"TIGER/Line® dataset from the US Census Bureau"
6/15/2019,P005823055,"3600 W WILTON ",CHICAGO,Illinois,"8-4-081(a)     Public Urination",41.947415,-87.653115,0.9,range_interpolation,3600,"N Wilton Ave",,,Chicago,IL,"Cook County",60613,US,"TIGER/Line® dataset from the US Census Bureau"
6/15/2019,P005822287,"11200 S VINCENNES ",CHICAGO,Illinois,"8-4-081(a)     Public Urination",41.689928,-87.664658,1,range_interpolation,11200,"S Vincennes Ave",,,Chicago,IL,"Cook County",60643,US,"TIGER/Line® dataset from the US Census Bureau"
6/15/2019,P005811611,"6200 S ARTESIAN ",CHICAGO,Illinois,"8-4-081(a)     Public Urination",41.780943,-87.685269,1,rooftop,6200,"S Artesian Ave",,,Chicago,IL,"Cook County",60629,US,"City of Chicago"
6/15/2019,P005922743,"100 W 103RD ",CHICAGO,Illinois,"8-4-081(a)     Public Urination",41.70607,-87.625872,1,range_interpolation,100,"W 103rd St",,,Chicago,IL,"Cook County",60628,US,"TIGER/Line® dataset from the US Census Bureau"
6/16/2019,P005107256,"100 N PULASKI ",CHICAGO,Illinois,"8-4-081(a)     Public Urination",41.882441,-87.725988,1,rooftop,100,"N Pulaski Rd",,,Chicago,IL,"Cook County",60624,US,"City of Chicago"
6/16/2019,P005139165,"2800 W FULLERTON ",CHICAGO,Illinois,"8-4-081(a)     Public Urination",41.925108,-87.697719,1,rooftop,2800,"W Fullerton Ave",,,Chicago,IL,"Cook County",60647,US,"City of Chicago"
6/16/2019,P005486525,"3400 N HALSTED ST ",CHICAGO,Illinois,"8-4-081(a)     Public Urination",41.943778,-87.649728,1,rooftop,3400,"N Halsted St",,,Chicago,IL,"Cook County",60657,US,"City of Chicago"
6/16/2019,P005456051,"1500 N KEDZIE ",CHICAGO,Illinois,"8-4-081(a)     Public Urination",41.90846,-87.707424,1,rooftop,1500,"N Kedzie Ave",,,Chicago,IL,"Cook County",60651,US,"City of Chicago"
6/16/2019,P005686413,"300 E 75TH ST ",CHICAGO,Illinois,"8-4-081(a)     Public Urination",41.758575,-87.61805,1,rooftop,300,"E 75th St",,,Chicago,IL,"Cook County",60619,US,"City of Chicago"
6/16/2019,P005640482,"3600 W OGDEN AVE ",CHICAGO,Illinois,"8-4-081(a)     Public Urination",41.854859,-87.715262,1,rooftop,3600,"W Ogden Ave",,,Chicago,IL,"Cook County",60623,US,"City of Chicago"
6/16/2019,P005643570,"1500 S LAWNDALE ",CHICAGO,Illinois,"8-4-081(a)     Public Urination",41.86065,-87.718047,1,rooftop,1500,"S Lawndale Ave",,,Chicago,IL,"Cook County",60623,US,"City of Chicago"
6/16/2019,P005643572,"2400 S ST LOUIS ",CHICAGO,Illinois,"8-4-081(a)     Public Urination",41.847924,-87.712806,1,rooftop,2400,"S St Louis Ave",,,Chicago,IL,"Cook County",60623,US,"City of Chicago"
6/16/2019,P005736597,"2300 W 21ST PL ",CHICAGO,Illinois,"8-4-081(a)     Public Urination",41.85326,-87.683396,1,rooftop,2300,"W 21st Pl",,,Chicago,IL,"Cook County",60608,US,"City of Chicago"
6/16/2019,P005780740,"200 E 47TH ST ",CHICAGO,Illinois,"8-4-081(a)     Public Urination",41.809461,-87.621212,1,range_interpolation,200,"E 47th St",,,Chicago,IL,"Cook County",60653,US,"TIGER/Line® dataset from the US Census Bureau"
6/16/2019,P005787094,"5100 S CICERO ",CHICAGO,Illinois,"8-4-081(a)     Public Urination",41.800166,-87.743358,1,rooftop,5100,"S Cicero Ave",,,Chicago,IL,"Cook County",60632,US,"City of Chicago"
6/16/2019,P005771073,"7900 S HALSTED ",CHICAGO,Illinois,"8-4-081(a)     Public Urination",41.750403,-87.64442,1,rooftop,7900,"S Halsted St",,,Chicago,IL,"Cook County",60620,US,"City of Chicago"
6/16/2019,P005770622,"7900 S HALSTED ",CHICAGO,Illinois,"8-4-081(a)     Public Urination",41.750403,-87.64442,1,rooftop,7900,"S Halsted St",,,Chicago,IL,"Cook County",60620,US,"City of Chicago"
6/16/2019,P005821965,"1600 W 89TH ST ",CHICAGO,Illinois,"8-4-081(a)     Public Urination",41.732038,-87.66296,1,range_interpolation,1600,"W 89th St",,,Chicago,IL,"Cook County",60620,US,"TIGER/Line® dataset from the US Census Bureau"
6/16/2019,P005794708,"10 N STATE ",CHICAGO,Illinois,"8-4-081(a)     Public Urination",41.881573,-87.628172,1,rooftop,10,"S State St",,,Chicago,IL,"Cook County",60603,US,"City of Chicago"
6/17/2019,P005297326,"2900 N DIVISION ",CHICAGO,Illinois,"8-4-081(a)     Public Urination",41.903045,-87.700043,0.9,range_interpolation,2900,"W Division St",,,Chicago,IL,"Cook County",60622,US,"TIGER/Line® dataset from the US Census Bureau"
6/17/2019,P005593824,"7900 S AVALON ",CHICAGO,Illinois,"8-4-081(a)     Public Urination",41.751249,-87.594271,1,range_interpolation,7900,"S Avalon Ave",,,Chicago,IL,"Cook County",60619,US,"TIGER/Line® dataset from the US Census Bureau"
6/17/2019,P005789208,"10 W 95TH ST ",CHICAGO,Illinois,"10-8-526/016-110-1.17  Urinating, Defecating or Causing the ",41.722795,-87.624737,0.81,nearest_rooftop_match,14,"W 95th St",,,Chicago,IL,"Cook County",60620,US,"City of Chicago"
6/17/2019,P005627055,"4900 N MILWAUKEE ",CHICAGO,Illinois,"8-4-081(a)     Public Urination",41.969661,-87.762764,1,rooftop,4900,"N Milwaukee Ave",,,Chicago,IL,"Cook County",60630,US,"City of Chicago"
6/17/2019,P005765629,"1000 W ARGYLE ",CHICAGO,Illinois,"8-4-081(a)     Public Urination",41.973162,-87.654927,1,range_interpolation,1000,"W Argyle St",,,Chicago,IL,"Cook County",60640,US,"TIGER/Line® dataset from the US Census Bureau"
6/17/2019,P005812057,"7100 S WESTERN ",CHICAGO,Illinois,"8-4-081(a)     Public Urination",41.764566,-87.683735,1,rooftop,7100,"S Western Ave",,,Chicago,IL,"Cook County",60636,US,Cook
6/17/2019,P005799531,"6300 S VERNON ",CHICAGO,Illinois,"8-4-081(a)     Public Urination",41.78011,-87.61441,1,range_interpolation,6300,"S Vernon Ave",,,Chicago,IL,"Cook County",60637,US,"TIGER/Line® dataset from the US Census Bureau"
6/17/2019,P005794709,"2500 S KEDZIE ",CHICAGO,Illinois,"8-4-081(a)     Public Urination",41.846209,-87.705445,1,rooftop,2500,"S Kedzie Ave",,,Chicago,IL,"Cook County",60623,US,"City of Chicago"
6/18/2019,P005451067,"10 S LOCKWOOD ",CHICAGO,Illinois,"8-4-081(a)     Public Urination",41.880249,-87.757846,1,range_interpolation,10,"S Lockwood Ave",,,Chicago,IL,"Cook County",60644,US,"TIGER/Line® dataset from the US Census Bureau"
6/18/2019,P005563178,"3300 S HALSTED ",CHICAGO,Illinois,"8-4-081(a)     Public Urination",41.83471,-87.646562,1,rooftop,3300,"S Halsted St",,,Chicago,IL,"Cook County",60608,US,"City of Chicago"
6/18/2019,P005687938,"7600 S KINGSTON ",CHICAGO,Illinois,"8-4-081(a)     Public Urination",41.756969,-87.563051,1,rooftop,7600,"S Kingston Ave",,,Chicago,IL,"Cook County",60649,US,"City of Chicago"
6/18/2019,P005691567,"1200 W DIVERSEY ",CHICAGO,Illinois,"8-4-081(a)     Public Urination",41.932405,-87.658709,1,range_interpolation,1200,"W Diversey Pkwy",,,Chicago,IL,"Cook County",60614,US,"TIGER/Line® dataset from the US Census Bureau"
6/18/2019,P005691732,"3100 N BROADWAY ",CHICAGO,Illinois,"8-4-081(a)     Public Urination",41.938052,-87.644328,1,range_interpolation,3100,"N Broadway St",,,Chicago,IL,"Cook County",60657,US,"TIGER/Line® dataset from the US Census Bureau"
6/18/2019,P005647323,"4500 W ADAMS ",CHICAGO,Illinois,"8-4-081(a)     Public Urination",41.878094,-87.738009,1,rooftop,4500,"W Adams St",,,Chicago,IL,"Cook County",60624,US,"City of Chicago"
6/18/2019,P005650590,"7300 W BELMONT ",CHICAGO,Illinois,"8-4-081(a)     Public Urination",41.938194,-87.809418,1,rooftop,7300,"W Belmont Ave",,,Chicago,IL,"Cook County",60634,US,"City of Chicago"
6/18/2019,P005720983,"4500 W MADISON ST ",CHICAGO,Illinois,"8-4-081(a)     Public Urination",41.880433,-87.737927,1,range_interpolation,4500,"W Madison St",,,Chicago,IL,"Cook County",60624,US,"TIGER/Line® dataset from the US Census Bureau"
6/18/2019,P005620511,"6000 W 57TH ST ",CHICAGO,Illinois,"8-4-081(a)     Public Urination",41.788723,-87.771923,1,range_interpolation,6000,"W 57th St",,,Chicago,IL,"Cook County",60638,US,"TIGER/Line® dataset from the US Census Bureau"
6/18/2019,P005845482,"900 W ADDISON ST ",CHICAGO,Illinois,"8-4-081(a)     Public Urination",41.947135,-87.651902,1,range_interpolation,900,"W Addison St",,,Chicago,IL,"Cook County",60613,US,"TIGER/Line® dataset from the US Census Bureau"
6/18/2019,P005845485,"900 W ADDISON ST ",CHICAGO,Illinois,"8-4-081(a)     Public Urination",41.947135,-87.651902,1,range_interpolation,900,"W Addison St",,,Chicago,IL,"Cook County",60613,US,"TIGER/Line® dataset from the US Census Bureau"
6/18/2019,P005845486,"900 W ADDISON ST ",CHICAGO,Illinois,"8-4-081(a)     Public Urination",41.947135,-87.651902,1,range_interpolation,900,"W Addison St",,,Chicago,IL,"Cook County",60613,US,"TIGER/Line® dataset from the US Census Bureau"
6/18/2019,P005770760,"800 E 79TH ST ",CHICAGO,Illinois,"8-4-081(a)     Public Urination",41.751436,-87.605215,1,range_interpolation,800,"E 79th St",,,Chicago,IL,"Cook County",60619,US,"TIGER/Line® dataset from the US Census Bureau"
6/18/2019,P005770385,"7600 S HALSTED ",CHICAGO,Illinois,"8-4-081(a)     Public Urination",41.755814,-87.644543,1,rooftop,7600,"S Halsted St",,,Chicago,IL,"Cook County",60620,US,"City of Chicago"
6/18/2019,P005916798,"1000 W WILSON ",CHICAGO,Illinois,"8-4-081(a)     Public Urination",41.965279,-87.654786,1,range_interpolation,1000,"W Wilson Ave",,,Chicago,IL,"Cook County",60640,US,"TIGER/Line® dataset from the US Census Bureau"
6/18/2019,P005918792,"2400 S PULASKI ",CHICAGO,Illinois,"8-4-081(a)     Public Urination",41.847707,-87.72501,1,rooftop,2400,"S Pulaski Rd",,,Chicago,IL,"Cook County",60623,US,"City of Chicago"
6/18/2019,P005908987,"1000 W BELMONT ",CHICAGO,Illinois,"8-4-081(a)     Public Urination",41.940107,-87.654471,1,rooftop,1000,"W Belmont Ave",,,Chicago,IL,"Cook County",60657,US,"City of Chicago"
6/18/2019,P005804552,"900 W ADDISON ",CHICAGO,Illinois,"8-4-081(a)     Public Urination",41.947135,-87.651902,1,range_interpolation,900,"W Addison St",,,Chicago,IL,"Cook County",60613,US,"TIGER/Line® dataset from the US Census Bureau"
6/18/2019,P005804554,"900 W ADDISON ",CHICAGO,Illinois,"8-4-081(a)     Public Urination",41.947135,-87.651902,1,range_interpolation,900,"W Addison St",,,Chicago,IL,"Cook County",60613,US,"TIGER/Line® dataset from the US Census Bureau"
6/18/2019,P005804555,"900 W ADDISON ",CHICAGO,Illinois,"8-4-081(a)     Public Urination",41.947135,-87.651902,1,range_interpolation,900,"W Addison St",,,Chicago,IL,"Cook County",60613,US,"TIGER/Line® dataset from the US Census Bureau"
6/18/2019,P005806685,"4500 S CICERO ",CHICAGO,Illinois,"8-4-081(a)     Public Urination",41.810945,-87.743651,1,rooftop,4500,"S Cicero Ave",,,Chicago,IL,"Cook County",60638,US,"City of Chicago"
6/18/2019,P005804916,"900 W ADDISON ",CHICAGO,Illinois,"8-4-081(a)     Public Urination",41.947135,-87.651902,1,range_interpolation,900,"W Addison St",,,Chicago,IL,"Cook County",60613,US,"TIGER/Line® dataset from the US Census Bureau"
6/18/2019,P005804917,"900 W ADDISON ",CHICAGO,Illinois,"8-4-081(a)     Public Urination",41.947135,-87.651902,1,range_interpolation,900,"W Addison St",,,Chicago,IL,"Cook County",60613,US,"TIGER/Line® dataset from the US Census Bureau"
6/19/2019,P005688588,"8900 S COMMERCIAL ",CHICAGO,Illinois,"8-4-081(a)     Public Urination",41.733512,-87.551748,1,rooftop,8900,"S Commercial Ave",,,Chicago,IL,"Cook County",60617,US,"City of Chicago"
6/19/2019,P005665061,"1400 S CANAL ST ",CHICAGO,Illinois,"8-4-081(a)     Public Urination",41.863069,-87.639862,1,rooftop,1400,"S Canal St",,,Chicago,IL,"Cook County",60607,US,"City of Chicago"
6/19/2019,P005689392,"3100 N MILWAUKEE AVE ",CHICAGO,Illinois,"8-4-081(a)     Public Urination",41.937385,-87.721591,1,rooftop,3100,"N Milwaukee Ave",,,Chicago,IL,"Cook County",60618,US,"City of Chicago"
6/19/2019,P005672338,"3900 W AUGUSTA ",CHICAGO,Illinois,"8-4-081(a)     Public Urination",41.898894,-87.723755,1,range_interpolation,3900,"W Augusta Blvd",,,Chicago,IL,"Cook County",60651,US,"TIGER/Line® dataset from the US Census Bureau"
6/19/2019,P005736554,"1200 S BLUE ISLAND ",CHICAGO,Illinois,"8-4-081(a)     Public Urination",41.861845,-87.65684,1,rooftop,1200,"S Blue Island Ave",,,Chicago,IL,"Cook County",60608,US,"City of Chicago"
6/19/2019,P005728645,"10 W KINZIE ST ",CHICAGO,Illinois,"8-4-081(a)     Public Urination",41.889495,-87.628931,1,rooftop,10,"W Kinzie St",,,Chicago,IL,"Cook County",60654,US,"City of Chicago"
6/19/2019,P005728222,"1200 S CANAL ST ",CHICAGO,Illinois,"8-4-081(a)     Public Urination",41.867103,-87.639217,1,range_interpolation,1200,"S Canal St",,,Chicago,IL,"Cook County",60606,US,"TIGER/Line® dataset from the US Census Bureau"
6/19/2019,P005620985,"6300 S RACINE ",CHICAGO,Illinois,"8-4-081(a)     Public Urination",41.779457,-87.654501,1,range_interpolation,6300,"S Racine Ave",,,Chicago,IL,"Cook County",60636,US,"TIGER/Line® dataset from the US Census Bureau"
6/19/2019,P005822395,"10500 S WALLACE ",CHICAGO,Illinois,"8-4-081(a)     Public Urination",41.702939,-87.638008,1,range_interpolation,10500,"S Wallace St",,,Chicago,IL,"Cook County",60628,US,"TIGER/Line® dataset from the US Census Bureau"
6/19/2019,P005795060,"2500 S KEDZIE ",CHICAGO,Illinois,"8-4-081(a)     Public Urination",41.846209,-87.705445,1,rooftop,2500,"S Kedzie Ave",,,Chicago,IL,"Cook County",60623,US,"City of Chicago"
6/20/2019,P005260789,"10 W ILLINOIS ",CHICAGO,Illinois,"8-4-081(a)     Public Urination",41.891109,-87.628573,1,rooftop,10,"W Illinois St",,,Chicago,IL,"Cook County",60610,US,"City of Chicago"
6/20/2019,P005459884,"1600 N HOYNE ",CHICAGO,Illinois,"8-4-081(a)     Public Urination",41.910588,-87.679985,1,range_interpolation,1600,"N Hoyne Ave",,,Chicago,IL,"Cook County",60622,US,"TIGER/Line® dataset from the US Census Bureau"
6/20/2019,P005517394,"200 S STATE ST ",CHICAGO,Illinois,"8-4-081(a)     Public Urination",41.879311,-87.627709,1,range_interpolation,200,"S State St",,,Chicago,IL,"Cook County",60603,US,"TIGER/Line® dataset from the US Census Bureau"
6/20/2019,P005474361,"4400 W CONGRESS ",CHICAGO,Illinois,"8-4-081(a)     Public Urination",41.874067,-87.735241,1,range_interpolation,4400,"W Congress Pkwy",,,Chicago,IL,"Cook County",60624,US,"TIGER/Line® dataset from the US Census Bureau"
6/20/2019,P005687855,"2600 E 78TH ST ",CHICAGO,Illinois,"8-4-081(a)     Public Urination",41.753758,-87.561419,1,range_interpolation,2600,"E 78th St",,,Chicago,IL,"Cook County",60649,US,"TIGER/Line® dataset from the US Census Bureau"
6/20/2019,P005663848,"700 S PHILLIPS ",CHICAGO,Illinois,"8-4-081(a)     Public Urination",41.750295,-87.564846,0.6,street_center,,"S Phillips Ave",,,Chicago,IL,"Cook County",60617,US,"TIGER/Line® dataset from the US Census Bureau"
6/20/2019,P005672361,"3900 W ADAMS ",CHICAGO,Illinois,"8-4-081(a)     Public Urination",41.877861,-87.723136,1,range_interpolation,3900,"W Adams St",,,Chicago,IL,"Cook County",60624,US,"TIGER/Line® dataset from the US Census Bureau"
6/20/2019,P005806193,"6200 S CAMPBELL ",CHICAGO,Illinois,"8-4-081(a)     Public Urination",41.780917,-87.68649,1,rooftop,6200,"S Campbell Ave",,,Chicago,IL,"Cook County",60629,US,"City of Chicago"
6/20/2019,P005770368,"10 W 119TH ST ",CHICAGO,Illinois,"8-4-081(a)     Public Urination",41.678171,-87.623036,1,range_interpolation,10,"W 119th St",,,Chicago,IL,"Cook County",60628,US,"TIGER/Line® dataset from the US Census Bureau"
6/20/2019,P005770478,"7800 S COMMERCIAL ",CHICAGO,Illinois,"8-4-081(a)     Public Urination",41.728775,-87.551074,0.6,street_center,,"S Commercial Ave",,,Chicago,IL,"Cook County",60617,US,"TIGER/Line® dataset from the US Census Bureau"
6/20/2019,P005743557,"4800 W LAKE ",CHICAGO,Illinois,"8-4-081(a)     Public Urination",41.886885,-87.745297,1,rooftop,4800,"W Lake St",,,Chicago,IL,"Cook County",60644,US,"City of Chicago"
6/20/2019,P005822306,"9600 S EMERALD ST ",CHICAGO,Illinois,"8-4-081(a)     Public Urination",41.719525,-87.642298,0.87,rooftop,9600,"S Emerald Ave",,,Chicago,IL,"Cook County",60628,US,"City of Chicago"
6/20/2019,P005918796,"3800 W ROOSEVELT ",CHICAGO,Illinois,"8-4-081(a)     Public Urination",41.866089,-87.720123,1,range_interpolation,3800,"W Roosevelt Rd",,,Chicago,IL,"Cook County",60624,US,"TIGER/Line® dataset from the US Census Bureau"
6/20/2019,P005812058,"6200 S MAPLEWOOD ",CHICAGO,Illinois,"8-4-081(a)     Public Urination",41.780899,-87.687708,1,rooftop,6200,"S Maplewood Ave",,,Chicago,IL,"Cook County",60629,US,"City of Chicago"
6/20/2019,P005807258,"6300 S VERNON ",CHICAGO,Illinois,"8-4-081(a)     Public Urination",41.78011,-87.61441,1,range_interpolation,6300,"S Vernon Ave",,,Chicago,IL,"Cook County",60637,US,"TIGER/Line® dataset from the US Census Bureau"
6/21/2019,P005472305,"4100 W AUGUSTA ",CHICAGO,Illinois,"8-4-081(a)     Public Urination",41.898827,-87.728652,1,range_interpolation,4100,"W Augusta Blvd",,,Chicago,IL,"Cook County",60651,US,"TIGER/Line® dataset from the US Census Bureau"
6/21/2019,P005679112,"2200 N LINCOLN ",CHICAGO,Illinois,"8-4-081(a)     Public Urination",41.922039,-87.64435,1,rooftop,2200,"N Lincoln Ave",,,Chicago,IL,"Cook County",60614,US,"City of Chicago"
6/21/2019,P005662139,"100  UNKNOWN ",CHICAGO,Illinois,"8-4-081(a)     Public Urination",41.88531,-87.62213,0.33,place,,,,,Chicago,IL,"Cook County",60601,US,"TIGER/Line® dataset from the US Census Bureau"
6/21/2019,P005692709,"4300 N SHERIDAN ",CHICAGO,Illinois,"8-4-081(a)     Public Urination",41.959919,-87.655203,1,rooftop,4300,"N Sheridan Rd",,,Chicago,IL,"Cook County",60613,US,"City of Chicago"
6/21/2019,P005732614,"3700 W CHICAGO ",CHICAGO,Illinois,"8-4-081(a)     Public Urination",41.895724,-87.718977,1,rooftop,3700,"W Chicago Ave",,,Chicago,IL,"Cook County",60651,US,"City of Chicago"
6/21/2019,P005852849,"3000 S HOMAN ",CHICAGO,Illinois,"8-4-081(a)     Public Urination",41.83885,-87.71011,1,rooftop,3000,"S Homan Ave",,,Chicago,IL,"Cook County",60623,US,"City of Chicago"
6/21/2019,P005852850,"1600 S KEDZIE ",CHICAGO,Illinois,"8-4-081(a)     Public Urination",41.85896,-87.705811,1,rooftop,1600,"S Kedzie Ave",,,Chicago,IL,"Cook County",60623,US,"City of Chicago"
6/21/2019,P005793837,"6600 S WESTERN ",CHICAGO,Illinois,"8-4-081(a)     Public Urination",41.773639,-87.683888,1,rooftop,6600,"S Western Ave",,,Chicago,IL,"Cook County",60629,US,"City of Chicago"
6/21/2019,P005806394,"7800 S WESTERN ",CHICAGO,Illinois,"8-4-081(a)     Public Urination",41.751615,-87.683037,1,range_interpolation,7800,"S Western Ave",,,Chicago,IL,"Cook County",60620,US,"TIGER/Line® dataset from the US Census Bureau"
6/21/2019,P005806107,"7000 S WESTERN ",CHICAGO,Illinois,"8-4-081(a)     Public Urination",41.766398,-87.683686,1,rooftop,7000,"S Western Ave",,,Chicago,IL,"Cook County",60629,US,"City of Chicago"
6/21/2019,P005705678,"10 W WALTON ST ",CHICAGO,Illinois,"8-4-081(a)     Public Urination",41.90008,-87.628634,1,range_interpolation,10,"W Walton St",,,Chicago,IL,"Cook County",60610,US,"TIGER/Line® dataset from the US Census Bureau"
6/21/2019,P005770337,"2600 E 95TH ST ",CHICAGO,Illinois,"8-4-081(a)     Public Urination",41.723142,-87.559137,1,rooftop,2600,"E 95th St",,,Chicago,IL,"Cook County",60617,US,"City of Chicago"
6/21/2019,P005765631,"5500 N KENMORE ",CHICAGO,Illinois,"8-4-081(a)     Public Urination",41.982006,-87.656565,1,range_interpolation,5500,"N Kenmore Ave",,,Chicago,IL,"Cook County",60640,US,"TIGER/Line® dataset from the US Census Bureau"
6/21/2019,P005911666,"10300 S TORRENCE AVE ",CHICAGO,Illinois,"8-4-081(a)     Public Urination",41.707779,-87.560048,1,rooftop,10300,"S Torrence Ave",,,Chicago,IL,"Cook County",60617,US,"City of Chicago"
6/21/2019,P005812059,"6900 S WESTERN ",CHICAGO,Illinois,"8-4-081(a)     Public Urination",41.768186,-87.683735,1,rooftop,6900,"S Western Ave",,,Chicago,IL,"Cook County",60629,US,"City of Chicago"
6/21/2019,P005811837,"6300 S ARTESIAN ",CHICAGO,Illinois,"8-4-081(a)     Public Urination",41.77909,-87.684863,1,range_interpolation,6300,"S Artesian Ave",,,Chicago,IL,"Cook County",60629,US,"TIGER/Line® dataset from the US Census Bureau"
6/21/2019,P005799544,"6300 S VERNON ",CHICAGO,Illinois,"8-4-081(a)     Public Urination",41.78011,-87.61441,1,range_interpolation,6300,"S Vernon Ave",,,Chicago,IL,"Cook County",60637,US,"TIGER/Line® dataset from the US Census Bureau"
6/21/2019,P005804920,"900 W ADDISON ",CHICAGO,Illinois,"8-4-081(a)     Public Urination",41.947135,-87.651902,1,range_interpolation,900,"W Addison St",,,Chicago,IL,"Cook County",60613,US,"TIGER/Line® dataset from the US Census Bureau"
6/22/2019,P003319129,"5900 S CARPENTER ",CHICAGO,Illinois,"8-4-081(a)     Public Urination",41.786787,-87.651046,1,range_interpolation,5900,"S Carpenter St",,,Chicago,IL,"Cook County",60621,US,"TIGER/Line® dataset from the US Census Bureau"
6/22/2019,P004191456,"800 E 79TH ",CHICAGO,Illinois,"8-4-081(a)     Public Urination",41.751436,-87.605215,1,range_interpolation,800,"E 79th St",,,Chicago,IL,"Cook County",60619,US,"TIGER/Line® dataset from the US Census Bureau"
6/22/2019,P005662130,"3600 W CHICAGO ",CHICAGO,Illinois,"8-4-081(a)     Public Urination",41.895747,-87.71658,1,rooftop,3600,"W Chicago Ave",,,Chicago,IL,"Cook County",60651,US,"City of Chicago"
6/22/2019,P005647724,"3100 W MADISON ",CHICAGO,Illinois,"8-4-081(a)     Public Urination",41.88085,-87.70366,1,range_interpolation,3100,"W Madison St",,,Chicago,IL,"Cook County",60612,US,"TIGER/Line® dataset from the US Census Bureau"
6/22/2019,P005780741,"4200 S PRAIRIE ",CHICAGO,Illinois,"8-4-081(a)     Public Urination",41.818231,-87.620319,0.8,rooftop,4200,"S Prairie Ave",,,Chicago,IL,"Cook County",60653,US,"City of Chicago"
6/22/2019,P005703391,"1900 S CENTRAL PARK ",CHICAGO,Illinois,"8-4-081(a)     Public Urination",41.854346,-87.71508,0.7,range_interpolation,1900,"S Central Park Ave",,,Chicago,IL,"Cook County",60623,US,"TIGER/Line® dataset from the US Census Bureau"
6/22/2019,P005786466,"3700 N HALSTED ",CHICAGO,Illinois,"8-4-081(a)     Public Urination",41.949302,-87.649872,1,rooftop,3700,"N Halsted St",,,Chicago,IL,"Cook County",60613,US,"City of Chicago"
6/22/2019,P005785807,"1200 N MILWAUKEE ",CHICAGO,Illinois,"8-4-081(a)     Public Urination",41.90134,-87.663796,1,rooftop,1200,"N Milwaukee Ave",,,"Evergreen Park",IL,"Cook County",60642,US,"City of Chicago"
6/22/2019,P005807827,"1500 E 66TH PLACE ",CHICAGO,Illinois,"8-4-081(a)     Public Urination",41.774378,-87.588817,1,range_interpolation,1500,"E 66th Pl",,,Chicago,IL,"Cook County",60637,US,"TIGER/Line® dataset from the US Census Bureau"
6/22/2019,P005852786,"1200 S AVERS ",CHICAGO,Illinois,"8-4-081(a)     Public Urination",41.866072,-87.721515,1,range_interpolation,1200,"S Avers Ave",,,Chicago,IL,"Cook County",60623,US,"TIGER/Line® dataset from the US Census Bureau"
6/22/2019,P005773222,"700 S CICERO AVE ",CHICAGO,Illinois,"8-4-081(a)     Public Urination",41.871921,-87.744932,1,range_interpolation,700,"S Cicero Ave",,,Chicago,IL,"Cook County",60644,US,"TIGER/Line® dataset from the US Census Bureau"
6/22/2019,P005770906,"8200 S KINGSTON ",CHICAGO,Illinois,"8-4-081(a)     Public Urination",41.746202,-87.562859,1,rooftop,8200,"S Kingston Ave",,,Chicago,IL,"Cook County",60617,US,"City of Chicago"
6/22/2019,P005845030,"900 W BELMONT ",CHICAGO,Illinois,"8-4-081(a)     Public Urination",41.940187,-87.651827,1,rooftop,900,"W Belmont Ave",,,Chicago,IL,"Cook County",60657,US,"City of Chicago"
6/22/2019,P005845701,"900 W BELMONT ST ",CHICAGO,Illinois,"8-4-081(a)     Public Urination",41.940187,-87.651827,1,rooftop,900,"W Belmont Ave",,,Chicago,IL,"Cook County",60657,US,"City of Chicago"
6/22/2019,P005830011,"6700 S WESTERN ",CHICAGO,Illinois,"8-4-081(a)     Public Urination",41.771827,-87.683443,1,range_interpolation,6700,"S Western Ave",,,Chicago,IL,"Cook County",60636,US,"TIGER/Line® dataset from the US Census Bureau"
6/22/2019,P005811192,"6000 S ARTESIAN ",CHICAGO,Illinois,"8-4-081(a)     Public Urination",41.784588,-87.685369,1,rooftop,6000,"S Artesian Ave",,,Chicago,IL,"Cook County",60629,US,"City of Chicago"
6/22/2019,P005811838,"7000 S WESTERN ",CHICAGO,Illinois,"8-4-081(a)     Public Urination",41.766398,-87.683686,1,rooftop,7000,"S Western Ave",,,Chicago,IL,"Cook County",60629,US,"City of Chicago"
6/22/2019,P005811477,"2400 W 71ST ",CHICAGO,Illinois,"8-4-081(a)     Public Urination",41.764551,-87.683242,1,range_interpolation,2400,"W 71st St",,,Chicago,IL,"Cook County",60629,US,"TIGER/Line® dataset from the US Census Bureau"
6/22/2019,P005795356,"1900 W 51ST ST ",CHICAGO,Illinois,"8-4-081(a)     Public Urination",41.801515,-87.672306,1,rooftop,1900,"W 51st St",,,Chicago,IL,"Cook County",60609,US,"City of Chicago"
6/23/2019,P005491066,"3400 N HALSTED ",CHICAGO,Illinois,"8-4-081(a)     Public Urination",41.943778,-87.649728,1,rooftop,3400,"N Halsted St",,,Chicago,IL,"Cook County",60657,US,"City of Chicago"
6/23/2019,P005380077,"3100 W ROOSEVELT ",CHICAGO,Illinois,"8-4-081(a)     Public Urination",41.866745,-87.703438,1,rooftop,3100,"W Roosevelt Rd",,,Chicago,IL,"Cook County",60612,US,"City of Chicago"
6/23/2019,P005528428,"200 N LAFLIN ",CHICAGO,Illinois,"8-4-081(a)     Public Urination",41.886314,-87.664307,1,range_interpolation,200,"N Laflin St",,,Chicago,IL,"Cook County",60607,US,"TIGER/Line® dataset from the US Census Bureau"
6/23/2019,P005508470,"2600 W LUTHER ",CHICAGO,Illinois,"8-4-081(a)     Public Urination",41.847311,-87.690591,1,rooftop,2600,"W Luther St",,,Chicago,IL,"Cook County",60608,US,"City of Chicago"
6/23/2019,P005557758,"4400 N KIMBALL ",CHICAGO,Illinois,"8-4-081(a)     Public Urination",41.961278,-87.713135,1,range_interpolation,4400,"N Kimball Ave",,,Chicago,IL,"Cook County",60625,US,"TIGER/Line® dataset from the US Census Bureau"
6/23/2019,P005557759,"4400 N KIMBALL ",CHICAGO,Illinois,"8-4-081(a)     Public Urination",41.961278,-87.713135,1,range_interpolation,4400,"N Kimball Ave",,,Chicago,IL,"Cook County",60625,US,"TIGER/Line® dataset from the US Census Bureau"
6/23/2019,P005569154,"4900 S CALUMET ",CHICAGO,Illinois,"8-4-081(a)     Public Urination",41.805253,-87.618361,1,rooftop,4900,"S Calumet Ave",,,Chicago,IL,"Cook County",60615,US,"City of Chicago"
6/23/2019,P005664236,"10300 S PRINCETON ST ",CHICAGO,Illinois,"8-4-081(a)     Public Urination",41.706923,-87.630701,1,range_interpolation,10300,"S Princeton Ave",,,Chicago,IL,"Cook County",60628,US,"TIGER/Line® dataset from the US Census Bureau"
6/23/2019,P005692571,"3400 N HALSTED ST ",CHICAGO,Illinois,"8-4-081(a)     Public Urination",41.943778,-87.649728,1,rooftop,3400,"N Halsted St",,,Chicago,IL,"Cook County",60657,US,"City of Chicago"
6/23/2019,P005691014,"800 W ALDINE ",CHICAGO,Illinois,"8-4-081(a)     Public Urination",41.941645,-87.649326,1,range_interpolation,800,"W Aldine Ave",,,Chicago,IL,"Cook County",60657,US,"TIGER/Line® dataset from the US Census Bureau"
6/23/2019,P005668709,"3400 N HALSTED ",CHICAGO,Illinois,"8-4-081(a)     Public Urination",41.943778,-87.649728,1,rooftop,3400,"N Halsted St",,,Chicago,IL,"Cook County",60657,US,"City of Chicago"
6/23/2019,P005668150,"3300 N HALSTED ST ",CHICAGO,Illinois,"8-4-081(a)     Public Urination",41.941936,-87.64968,1,rooftop,3300,"N Halsted St",,,Chicago,IL,"Cook County",60657,US,"City of Chicago"
6/23/2019,P005650304,"4900 N MILWAUKEE ",CHICAGO,Illinois,"8-4-081(a)     Public Urination",41.969661,-87.762764,1,rooftop,4900,"N Milwaukee Ave",,,Chicago,IL,"Cook County",60630,US,"City of Chicago"
6/23/2019,P005643799,"2600 S CHRISTIANA ",CHICAGO,Illinois,"8-4-081(a)     Public Urination",41.844317,-87.708689,1,range_interpolation,2600,"S Christiana Ave",,,Chicago,IL,"Cook County",60623,US,"TIGER/Line® dataset from the US Census Bureau"
6/23/2019,P005720984,"4100 W MADISON ST ",CHICAGO,Illinois,"8-4-081(a)     Public Urination",41.881108,-87.728354,1,rooftop,4100,"W Madison St",,,Chicago,IL,"Cook County",60624,US,"City of Chicago"
6/23/2019,P005785612,"1200 N ASHLAND ",CHICAGO,Illinois,"8-4-081(a)     Public Urination",41.90372,-87.667571,1,rooftop,1200,"N Ashland Ave",,,Chicago,IL,"Cook County",60622,US,"City of Chicago"
6/23/2019,P005717614,"4000 W PULASKI ",CHICAGO,Illinois,"8-4-081(a)     Public Urination",41.953972,-87.727935,0.8,rooftop,4000,"N Pulaski Rd",,,Chicago,IL,"Cook County",60618,US,"City of Chicago"
6/23/2019,P005793865,"6900 S WESTERN ",CHICAGO,Illinois,"8-4-081(a)     Public Urination",41.768186,-87.683735,1,rooftop,6900,"S Western Ave",,,Chicago,IL,"Cook County",60629,US,"City of Chicago"
6/23/2019,P005770369,"10200 S MICHIGAN ",CHICAGO,Illinois,"8-4-081(a)     Public Urination",41.708909,-87.620312,1,rooftop,10200,"S Michigan Ave",,,Chicago,IL,"Cook County",60628,US,"City of Chicago"
6/23/2019,P005703967,"4100 S ARCHER ",CHICAGO,Illinois,"8-4-081(a)     Public Urination",41.819599,-87.695791,1,rooftop,4100,"S Archer Ave",,,Chicago,IL,"Cook County",60632,US,"City of Chicago"
6/23/2019,P005917134,"4400 N BROADWAY ",CHICAGO,Illinois,"8-4-081(a)     Public Urination",41.962555,-87.656447,1,rooftop,4400,"N Broadway St",,,Chicago,IL,"Cook County",60640,US,"City of Chicago"
6/23/2019,P005823413,"3200 N CLARK ST ",CHICAGO,Illinois,"8-4-081(a)     Public Urination",41.940259,-87.651361,1,rooftop,3200,"N Clark St",,,Chicago,IL,"Cook County",60657,US,"City of Chicago"
6/23/2019,P005822723,"4400 N BROADWAY ",CHICAGO,Illinois,"8-4-081(a)     Public Urination",41.962555,-87.656447,1,rooftop,4400,"N Broadway St",,,Chicago,IL,"Cook County",60640,US,"City of Chicago"
6/23/2019,P005909790,"3400 N HALSTED ST ",CHICAGO,Illinois,"8-4-081(a)     Public Urination",41.943778,-87.649728,1,rooftop,3400,"N Halsted St",,,Chicago,IL,"Cook County",60657,US,"City of Chicago"
6/23/2019,P005909791,"3400 N HALSTED ST ",CHICAGO,Illinois,"8-4-081(a)     Public Urination",41.943778,-87.649728,1,rooftop,3400,"N Halsted St",,,Chicago,IL,"Cook County",60657,US,"City of Chicago"
6/24/2019,P005480832,"100 W 95TH ST ",CHICAGO,Illinois,"8-4-081(a)     Public Urination",41.721974,-87.626781,1,rooftop,100,"W 95th St",,,Chicago,IL,"Cook County",60620,US,Cook
6/24/2019,P005451041,"300 N LARAMIE ",CHICAGO,Illinois,"8-4-081(a)     Public Urination",41.885788,-87.75526,1,range_interpolation,300,"N Laramie Ave",,,Chicago,IL,"Cook County",60644,US,"TIGER/Line® dataset from the US Census Bureau"
6/24/2019,P005664287,"8300 S COTTAGE GROVE ",CHICAGO,Illinois,"8-4-081(a)     Public Urination",41.74355,-87.605496,1,rooftop,8300,"S Cottage Grove Ave",,,Chicago,IL,"Cook County",60619,US,"City of Chicago"
6/24/2019,P005707531,"3400 W MELROSE ",CHICAGO,Illinois,"8-4-081(a)     Public Urination",41.940332,-87.713164,1,range_interpolation,3400,"W Melrose St",,,Chicago,IL,"Cook County",60618,US,"TIGER/Line® dataset from the US Census Bureau"
6/24/2019,P005691015,"3300 N HALSTED ST ",CHICAGO,Illinois,"8-4-081(a)     Public Urination",41.941936,-87.64968,1,rooftop,3300,"N Halsted St",,,Chicago,IL,"Cook County",60657,US,"City of Chicago"
6/24/2019,P005664268,"10 E 103RD ST ",CHICAGO,Illinois,"8-4-081(a)     Public Urination",41.707405,-87.623109,1,rooftop,10,"E 103rd St",,,Chicago,IL,"Cook County",60628,US,"City of Chicago"
6/24/2019,P005664165,"9500 S HALSTED ",CHICAGO,Illinois,"8-4-081(a)     Public Urination",41.721276,-87.643591,1,rooftop,9500,"S Halsted St",,,Chicago,IL,"Cook County",60628,US,"City of Chicago"
6/24/2019,P005643499,"5400 S BISHOP ",CHICAGO,Illinois,"8-4-081(a)     Public Urination",41.795779,-87.66135,1,rooftop,5400,"S Bishop St",,,Chicago,IL,"Cook County",60609,US,"City of Chicago"
6/24/2019,P005728456,"10 E IDA B WELLS DR ",CHICAGO,Illinois,"8-4-081(a)     Public Urination",41.875539,-87.634285,0.5,street_center,,"W Ida B Wells Dr",,,Chicago,IL,"Cook County",60607,US,"TIGER/Line® dataset from the US Census Bureau"
6/24/2019,P005728476,"10 E ROOSEVELT RD ",CHICAGO,Illinois,"8-4-081(a)     Public Urination",41.867624,-87.627264,1,range_interpolation,10,"E Roosevelt Rd",,,Chicago,IL,"Cook County",60605,US,"TIGER/Line® dataset from the US Census Bureau"
6/24/2019,P005728223,"200 S STATE ST ",CHICAGO,Illinois,"8-4-081(a)     Public Urination",41.879311,-87.627709,1,range_interpolation,200,"S State St",,,Chicago,IL,"Cook County",60603,US,"TIGER/Line® dataset from the US Census Bureau"
6/24/2019,P005729685,"2200 N LINCOLN ",CHICAGO,Illinois,"8-4-081(a)     Public Urination",41.922039,-87.64435,1,rooftop,2200,"N Lincoln Ave",,,Chicago,IL,"Cook County",60614,US,"City of Chicago"
6/24/2019,P005615046,"200 W VAN BUREN ",CHICAGO,Illinois,"8-4-081(a)     Public Urination",41.876699,-87.633693,1,range_interpolation,200,"W Van Buren St",,,Chicago,IL,"Cook County",60607,US,"TIGER/Line® dataset from the US Census Bureau"
6/24/2019,P005794914,"300 N WABASH ",CHICAGO,Illinois,"8-4-081(a)     Public Urination",41.887507,-87.626562,1,range_interpolation,300,"N Wabash Ave",,,Chicago,IL,"Cook County",60611,US,"TIGER/Line® dataset from the US Census Bureau"
6/24/2019,P005909258,"4600 N LINCOLN ",CHICAGO,Illinois,"8-4-081(a)     Public Urination",41.965114,-87.686638,1,rooftop,4600,"N Lincoln Ave",,,Chicago,IL,"Cook County",60625,US,"City of Chicago"
6/24/2019,P005916607,"3500 N CLARK ",CHICAGO,Illinois,"8-4-081(a)     Public Urination",41.945755,-87.65523,1,range_interpolation,3500,"N Clark St",,,Chicago,IL,"Cook County",60657,US,"TIGER/Line® dataset from the US Census Bureau"
6/24/2019,P005845630,"10 E ROOSEVELT ST ",CHICAGO,Illinois,"8-4-081(a)     Public Urination",41.867621,-87.62779,0.7,range_interpolation,10,"W Roosevelt Rd",,,Chicago,IL,"Cook County",60608,US,"TIGER/Line® dataset from the US Census Bureau"
6/24/2019,P005830015,"6900 S ROCKWELL ",CHICAGO,Illinois,"8-4-081(a)     Public Urination",41.768106,-87.688237,1,range_interpolation,6900,"S Rockwell St",,,Chicago,IL,"Cook County",60629,US,"TIGER/Line® dataset from the US Census Bureau"
6/24/2019,P005830071,"6100 S KEDZIE ",CHICAGO,Illinois,"8-4-081(a)     Public Urination",41.782456,-87.703245,1,range_interpolation,6100,"S Kedzie Ave",,,Chicago,IL,"Cook County",60629,US,"TIGER/Line® dataset from the US Census Bureau"
6/25/2019,P003319155,"700 E 83RD ST ",CHICAGO,Illinois,"8-4-081(a)     Public Urination",41.744215,-87.607265,1,rooftop,700,"E 83rd St",,,Chicago,IL,"Cook County",60619,US,Cook
6/25/2019,P005567434,"3500 S INDIANA ",CHICAGO,Illinois,"8-4-081(a)     Public Urination",41.830869,-87.622208,1,rooftop,3500,"S Indiana Ave",,,Chicago,IL,"Cook County",60616,US,"City of Chicago"
6/25/2019,P005478046,"1500 W MARQUTTE ",CHICAGO,Illinois,"8-4-081(a)     Public Urination",41.772495,-87.661822,1,rooftop,1500,"W Marquette Rd",,,Chicago,IL,"Cook County",60636,US,"City of Chicago"
6/25/2019,P005699193,"5500 S ASHLAND ",CHICAGO,Illinois,"8-4-081(a)     Public Urination",41.793513,-87.664574,1,range_interpolation,5500,"S Ashland Ave",,,Chicago,IL,"Cook County",60636,US,"TIGER/Line® dataset from the US Census Bureau"
6/25/2019,P005663988,"800 E 79TH ",CHICAGO,Illinois,"8-4-081(a)     Public Urination",41.751436,-87.605215,1,range_interpolation,800,"E 79th St",,,Chicago,IL,"Cook County",60619,US,"TIGER/Line® dataset from the US Census Bureau"
6/25/2019,P005647826,"6300 S LAFLIN ST ",CHICAGO,Illinois,"8-4-081(a)     Public Urination",41.779357,-87.661783,1,range_interpolation,6300,"S Laflin St",,,Chicago,IL,"Cook County",60636,US,"TIGER/Line® dataset from the US Census Bureau"
6/25/2019,P005647967,"4000 W MAYPOLE ",CHICAGO,Illinois,"8-4-081(a)     Public Urination",41.884528,-87.725783,1,range_interpolation,4000,"W Maypole Ave",,,Chicago,IL,"Cook County",60624,US,"TIGER/Line® dataset from the US Census Bureau"
6/25/2019,P005643801,"2400 S MILLARD ",CHICAGO,Illinois,"8-4-081(a)     Public Urination",41.847869,-87.716115,1,range_interpolation,2400,"S Millard Ave",,,Chicago,IL,"Cook County",60623,US,"TIGER/Line® dataset from the US Census Bureau"
6/25/2019,P005724379,"800 E 79TH ST ",CHICAGO,Illinois,"8-4-081(a)     Public Urination",41.751436,-87.605215,1,range_interpolation,800,"E 79th St",,,Chicago,IL,"Cook County",60619,US,"TIGER/Line® dataset from the US Census Bureau"
6/25/2019,P005725150,"1600 E 79TH ST ",CHICAGO,Illinois,"8-4-081(a)     Public Urination",41.751724,-87.585192,1,rooftop,1600,"E 79th St",,,Chicago,IL,"Cook County",60649,US,"City of Chicago"
6/25/2019,P005785805,"1500 W LUIS MUNOZ DR ",CHICAGO,Illinois,"8-4-081(a)     Public Urination",41.88531,-87.62213,0.33,place,,,,,Chicago,IL,"Cook County",60601,US,"TIGER/Line® dataset from the US Census Bureau"
6/25/2019,P005806770,"6000 S KEDZIE ",CHICAGO,Illinois,"8-4-081(a)     Public Urination",41.784309,-87.703646,1,rooftop,6000,"S Kedzie Ave",,,Chicago,IL,"Cook County",60629,US,"City of Chicago"
6/25/2019,P005793868,"6900 S WESTERN ",CHICAGO,Illinois,"8-4-081(a)     Public Urination",41.768186,-87.683735,1,rooftop,6900,"S Western Ave",,,Chicago,IL,"Cook County",60629,US,"City of Chicago"
6/25/2019,P005807245,"6600 S COTTAGE GROVE ",CHICAGO,Illinois,"8-4-081(a)     Public Urination",41.774736,-87.60621,1,rooftop,6600,"S Cottage Grove Ave",,,Chicago,IL,"Cook County",60637,US,"City of Chicago"
6/25/2019,P005773072,"5200 W VAN BUREN ST ",CHICAGO,Illinois,"8-4-081(a)     Public Urination",41.874698,-87.754858,1,range_interpolation,5200,"W Van Buren St",,,Chicago,IL,"Cook County",60644,US,"TIGER/Line® dataset from the US Census Bureau"
6/25/2019,P005771009,"7900 S HALSTED ",CHICAGO,Illinois,"8-4-081(a)     Public Urination",41.750403,-87.64442,1,rooftop,7900,"S Halsted St",,,Chicago,IL,"Cook County",60620,US,"City of Chicago"
6/25/2019,P005800521,"1600 E 75TH ST ",CHICAGO,Illinois,"8-4-081(a)     Public Urination",41.758913,-87.586135,1,range_interpolation,1600,"E 75th St",,,Chicago,IL,"Cook County",60649,US,"TIGER/Line® dataset from the US Census Bureau"
6/25/2019,P005830016,"7000 S WESTERN ",CHICAGO,Illinois,"8-4-081(a)     Public Urination",41.766398,-87.683686,1,rooftop,7000,"S Western Ave",,,Chicago,IL,"Cook County",60629,US,"City of Chicago"
6/25/2019,P005802098,"6900 N RAVENSWOOD ",CHICAGO,Illinois,"8-4-081(a)     Public Urination",42.006673,-87.675724,1,range_interpolation,6900,"N Ravenswood Ave",,,Chicago,IL,"Cook County",60626,US,"TIGER/Line® dataset from the US Census Bureau"
6/26/2019,P005668664,"3400 N CLARK ",CHICAGO,Illinois,"8-4-081(a)     Public Urination",41.943823,-87.654025,1,rooftop,3400,"N Clark St",,,Chicago,IL,"Cook County",60657,US,"City of Chicago"
6/26/2019,P005642666,"2000 S PULASKI RD ",CHICAGO,Illinois,"10-8-526/016-110-1.17  Urinating, Defecating or Causing the ",41.854283,-87.725187,1,rooftop,2000,"S Pulaski Rd",,,Chicago,IL,"Cook County",60623,US,"City of Chicago"
6/26/2019,P005806395,"2400 W 69 ST ",CHICAGO,Illinois,"8-4-081(a)     Public Urination",41.769291,-87.625838,1,range_interpolation,2400,"W 69th St",,,Chicago,IL,"Cook County",60621,US,"TIGER/Line® dataset from the US Census Bureau"
6/26/2019,P005844865,"900 W ADDISON ",CHICAGO,Illinois,"8-4-081(a)     Public Urination",41.947135,-87.651902,1,range_interpolation,900,"W Addison St",,,Chicago,IL,"Cook County",60613,US,"TIGER/Line® dataset from the US Census Bureau"
6/26/2019,P005852743,"2900 W ROOSEVELT ",CHICAGO,Illinois,"8-4-081(a)     Public Urination",41.866331,-87.698346,1,range_interpolation,2900,"W Roosevelt Rd",,,Chicago,IL,"Cook County",60612,US,"TIGER/Line® dataset from the US Census Bureau"
6/26/2019,P005707592,"6300 W IRVING PK ",CHICAGO,Illinois,"8-4-081(a)     Public Urination",41.953218,-87.784565,1,rooftop,6300,"W Irving Park Rd",,,Chicago,IL,"Cook County",60634,US,"City of Chicago"
6/26/2019,P005804922,"900 W ADDISON ",CHICAGO,Illinois,"8-4-081(a)     Public Urination",41.947135,-87.651902,1,range_interpolation,900,"W Addison St",,,Chicago,IL,"Cook County",60613,US,"TIGER/Line® dataset from the US Census Bureau"
6/26/2019,P005811612,"6900 S ARTESIAN ",CHICAGO,Illinois,"8-4-081(a)     Public Urination",41.76806,-87.68475,1,rooftop,6900,"S Artesian Ave",,,Chicago,IL,"Cook County",60629,US,"City of Chicago"
6/26/2019,P005794720,"1200 S TROY ",CHICAGO,Illinois,"8-4-081(a)     Public Urination",41.866123,-87.704661,1,rooftop,1200,"S Troy St",,,Chicago,IL,"Cook County",60623,US,"City of Chicago"
6/26/2019,P005804921,"900 W MADISON ",CHICAGO,Illinois,"8-4-081(a)     Public Urination",41.881624,-87.649698,1,range_interpolation,900,"W Madison St",,,Chicago,IL,"Cook County",60607,US,"TIGER/Line® dataset from the US Census Bureau"
6/27/2019,P005262018,"3500 S ARCHER ",CHICAGO,Illinois,"8-4-081(a)     Public Urination",41.830202,-87.678399,1,rooftop,3500,"S Archer Ave",,,Chicago,IL,"Cook County",60609,US,"City of Chicago"
6/27/2019,P005262019,"4200 S RICHMOND ",CHICAGO,Illinois,"8-4-081(a)     Public Urination",41.817391,-87.698509,1,range_interpolation,4200,"S Richmond St",,,Chicago,IL,"Cook County",60632,US,"TIGER/Line® dataset from the US Census Bureau"
6/27/2019,P005663832,"400 E 103RD ST ",CHICAGO,Illinois,"8-4-081(a)     Public Urination",41.707598,-87.613545,1,rooftop,400,"E 103rd St",,,Chicago,IL,"Cook County",60628,US,"City of Chicago"
6/27/2019,P005664282,"700 E 79TH ST ",CHICAGO,Illinois,"8-4-081(a)     Public Urination",41.751479,-87.607476,1,rooftop,700,"E 79th St",,,Chicago,IL,"Cook County",60619,US,"City of Chicago"
6/27/2019,P005647873,"1400 S SPRINGFIELD ST ",CHICAGO,Illinois,"8-4-081(a)     Public Urination",41.862399,-87.722628,1,range_interpolation,1400,"S Springfield Ave",,,Chicago,IL,"Cook County",60623,US,"TIGER/Line® dataset from the US Census Bureau"
6/27/2019,P005832262,"700 N WELLS ",CHICAGO,Illinois,"8-4-081(a)     Public Urination",41.89493,-87.63442,1,rooftop,700,"N Wells St",,,Chicago,IL,"Cook County",60610,US,"City of Chicago"
6/27/2019,P005806090,"600 S WESTERN ",CHICAGO,Illinois,"8-4-081(a)     Public Urination",41.87374,-87.68662,1,rooftop,600,"S Western Ave",,,Chicago,IL,"Cook County",60612,US,"City of Chicago"
6/28/2019,P005115205,"1100 N LASALLE ",CHICAGO,Illinois,"8-4-081(a)     Public Urination",41.902063,-87.633249,0.9,rooftop,1100,"N La Salle Dr",,,Chicago,IL,"Cook County",60610,US,"City of Chicago"
6/28/2019,P005528263,"2300 W CHICAGO ",CHICAGO,Illinois,"8-4-081(a)     Public Urination",41.895634,-87.684396,1,range_interpolation,2300,"W Chicago Ave",,,Chicago,IL,"Cook County",60622,US,"TIGER/Line® dataset from the US Census Bureau"
6/28/2019,P005664284,"800 E 86TH ST ",CHICAGO,Illinois,"8-4-081(a)     Public Urination",41.738612,-87.604875,1,range_interpolation,800,"E 86th St",,,Chicago,IL,"Cook County",60619,US,"TIGER/Line® dataset from the US Census Bureau"
6/28/2019,P005692421,"4400 N BROADWAY ",CHICAGO,Illinois,"8-4-081(a)     Public Urination",41.962555,-87.656447,1,rooftop,4400,"N Broadway St",,,Chicago,IL,"Cook County",60640,US,"City of Chicago"
6/28/2019,P005661657,"3000 W VAN BUREN ST ",CHICAGO,Illinois,"8-4-081(a)     Public Urination",41.875778,-87.701079,1,range_interpolation,3000,"W Van Buren St",,,Chicago,IL,"Cook County",60612,US,"TIGER/Line® dataset from the US Census Bureau"
6/28/2019,P005647968,"1500 W 63RD ST ",CHICAGO,Illinois,"8-4-081(a)     Public Urination",41.779772,-87.662011,1,rooftop,1500,"W 63rd St",,,Chicago,IL,"Cook County",60636,US,"City of Chicago"
6/28/2019,P005653366,"1100 N AVERS ",CHICAGO,Illinois,"8-4-081(a)     Public Urination",41.901019,-87.72295,1,rooftop,1100,"N Avers Ave",,,Chicago,IL,"Cook County",60651,US,"City of Chicago"
6/28/2019,P005647245,"11900 S MICHIGAN ",CHICAGO,Illinois,"8-4-081(a)     Public Urination",41.6779,-87.620864,1,rooftop,11900,"S Michigan Ave",,,Chicago,IL,"Cook County",60628,US,"City of Chicago"
6/28/2019,P005650898,"5700 N BROADWAY ",CHICAGO,Illinois,"8-4-081(a)     Public Urination",41.985607,-87.66055,1,rooftop,5700,"N Broadway",,,Chicago,IL,"Cook County",60660,US,"City of Chicago"
6/28/2019,P005785071,"2100 N MAPLEWOOD ",CHICAGO,Illinois,"8-4-081(a)     Public Urination",41.919377,-87.691332,1,range_interpolation,2100,"N Maplewood Ave",,,Chicago,IL,"Cook County",60647,US,"TIGER/Line® dataset from the US Census Bureau"
6/28/2019,P005780783,"4600 S INDIANA ",CHICAGO,Illinois,"8-4-081(a)     Public Urination",41.810931,-87.621742,1,rooftop,4600,"S Indiana Ave",,,Chicago,IL,"Cook County",60653,US,"City of Chicago"
6/28/2019,P005852874,"5100 S KEDZIE ",CHICAGO,Illinois,"8-4-081(a)     Public Urination",41.800647,-87.703937,1,rooftop,5100,"S Kedzie Ave",,,Chicago,IL,"Cook County",60632,US,"City of Chicago"
6/28/2019,P005770937,"10200 S MICHIGAN ",CHICAGO,Illinois,"8-4-081(a)     Public Urination",41.708909,-87.620312,1,rooftop,10200,"S Michigan Ave",,,Chicago,IL,"Cook County",60628,US,"City of Chicago"
6/28/2019,P005711564,"3400 W LAWRENCE ",CHICAGO,Illinois,"8-4-081(a)     Public Urination",41.968681,-87.713574,1,rooftop,3400,"W Lawrence Ave",,,Chicago,IL,"Cook County",60625,US,"City of Chicago"
6/28/2019,P005830019,"7100 S FAIRFIELD ",CHICAGO,Illinois,"8-4-081(a)     Public Urination",41.764408,-87.691803,1,range_interpolation,7100,"S Fairfield Ave",,,Chicago,IL,"Cook County",60629,US,"TIGER/Line® dataset from the US Census Bureau"
6/28/2019,P005821620,"9200 S HALSTED ST ",CHICAGO,Illinois,"8-4-081(a)     Public Urination",41.726739,-87.643744,1,rooftop,9200,"S Halsted St",,,Chicago,IL,"Cook County",60620,US,"City of Chicago"
6/28/2019,P005917238,"8600 S COMMERCIAL ",CHICAGO,Illinois,"8-4-081(a)     Public Urination",41.73893,-87.55184,1,rooftop,8600,"S Commercial Ave",,,Chicago,IL,"Cook County",60617,US,"City of Chicago"
6/29/2019,P003319163,"5900 S THROOP ",CHICAGO,Illinois,"8-4-081(a)     Public Urination",41.7867,-87.657114,1,range_interpolation,5900,"S Throop St",,,Chicago,IL,"Cook County",60636,US,"TIGER/Line® dataset from the US Census Bureau"
6/29/2019,P005474257,"400 S CICERO ",CHICAGO,Illinois,"8-4-081(a)     Public Urination",41.874809,-87.745323,1,rooftop,400,"S Cicero Ave",,,Chicago,IL,"Cook County",60644,US,"City of Chicago"
6/29/2019,P005686751,"3000 E CHELTENHAM ",CHICAGO,Illinois,"8-4-081(a)     Public Urination",41.752135,-87.552363,1,rooftop,3000,"E Cheltenham Pl",,,Chicago,IL,"Cook County",60649,US,"City of Chicago"
6/29/2019,P005680534,"10 W DIVISION ST ",CHICAGO,Illinois,"8-4-081(a)     Public Urination",41.904089,-87.629138,1,rooftop,10,"W Division St",,,Chicago,IL,"Cook County",60610,US,Cook
6/29/2019,P005682116,"1400 W FULTON ST ",CHICAGO,Illinois,"8-4-081(a)     Public Urination",41.886436,-87.662483,1,range_interpolation,1400,"W Fulton St",,,Chicago,IL,"Cook County",60607,US,"TIGER/Line® dataset from the US Census Bureau"
6/29/2019,P005684681,"10300 S RHODES ",CHICAGO,Illinois,"8-4-081(a)     Public Urination",41.707219,-87.610112,1,range_interpolation,10300,"S Rhodes Ave",,,Chicago,IL,"Cook County",60628,US,"TIGER/Line® dataset from the US Census Bureau"
6/29/2019,P005687863,"7900 S ANTHONY AVE ",CHICAGO,Illinois,"8-4-081(a)     Public Urination",41.751314,-87.588487,1,range_interpolation,7900,"S Anthony Ave",,,Chicago,IL,"Cook County",60619,US,"TIGER/Line® dataset from the US Census Bureau"
6/29/2019,P005682227,"2100 W JACKSON ",CHICAGO,Illinois,"8-4-081(a)     Public Urination",41.877402,-87.678989,1,range_interpolation,2100,"W Jackson Blvd",,,Chicago,IL,"Cook County",60612,US,"TIGER/Line® dataset from the US Census Bureau"
6/29/2019,P005699621,"6800 S ASHLAND AVE ",CHICAGO,Illinois,"8-4-081(a)     Public Urination",41.77025,-87.664354,1,rooftop,6800,"S Ashland Ave",,,Chicago,IL,"Cook County",60636,US,"City of Chicago"
6/29/2019,P005685078,"10 E 100TH PL ",CHICAGO,Illinois,"8-4-081(a)     Public Urination",41.711871,-87.623315,1,range_interpolation,10,"E 100th Pl",,,Chicago,IL,"Cook County",60628,US,"TIGER/Line® dataset from the US Census Bureau"
6/29/2019,P005793840,"6800 S MAPLEWOOD ",CHICAGO,Illinois,"8-4-081(a)     Public Urination",41.769948,-87.687063,1,range_interpolation,6800,"S Maplewood Ave",,,Chicago,IL,"Cook County",60629,US,"TIGER/Line® dataset from the US Census Bureau"
6/29/2019,P005799397,"7400 S STONY ISLAND ",CHICAGO,Illinois,"8-4-081(a)     Public Urination",41.760398,-87.586579,1,rooftop,7400,"S Stony Island Ave",,,Chicago,IL,"Cook County",60619,US,"City of Chicago"
6/29/2019,P005796322,"4600 W FULLERTON ",CHICAGO,Illinois,"8-4-081(a)     Public Urination",41.924681,-87.742109,1,rooftop,4600,"W Fullerton Ave",,,Chicago,IL,"Cook County",60639,US,"City of Chicago"
6/30/2019,P005119557,"1300 N HUMBOLDT ",CHICAGO,Illinois,"8-4-081(a)     Public Urination",41.903432,-87.70205,1,range_interpolation,1300,"N Humboldt Blvd",,,Chicago,IL,"Cook County",60647,US,"TIGER/Line® dataset from the US Census Bureau"
6/30/2019,P005457635,"400 W WILSON ",CHICAGO,Illinois,"8-4-081(a)     Public Urination",42.112366,-88.053771,0.9,rooftop,400,"W Wilson St",,,Palatine,IL,"Cook County",60067,US,Cook
6/30/2019,P005464344,"800 N LATROBE ",CHICAGO,Illinois,"8-4-081(a)     Public Urination",41.895069,-87.756824,1,range_interpolation,800,"N Latrobe Ave",,,Chicago,IL,"Cook County",60651,US,"TIGER/Line® dataset from the US Census Bureau"
6/30/2019,P005552373,"1900 S KEDZIE ",CHICAGO,Illinois,"8-4-081(a)     Public Urination",41.855265,-87.705357,1,range_interpolation,1900,"S Kedzie Ave",,,Chicago,IL,"Cook County",60623,US,"TIGER/Line® dataset from the US Census Bureau"
6/30/2019,P005536291,"10 W 79TH ST ",CHICAGO,Illinois,"8-4-081(a)     Public Urination",41.751074,-87.625901,1,range_interpolation,10,"W 79th St",,,Chicago,IL,"Cook County",60620,US,"TIGER/Line® dataset from the US Census Bureau"
6/30/2019,P005550435,"3600 W OGDEN ",CHICAGO,Illinois,"8-4-081(a)     Public Urination",41.854859,-87.715262,1,rooftop,3600,"W Ogden Ave",,,Chicago,IL,"Cook County",60623,US,"City of Chicago"
6/30/2019,P005680537,"10 W ELM ST ",CHICAGO,Illinois,"8-4-081(a)     Public Urination",41.903404,-87.628953,1,rooftop,10,"W Elm St",,,Chicago,IL,"Cook County",60610,US,"City of Chicago"
6/30/2019,P005691616,"3200 N HALSTED ST ",CHICAGO,Illinois,"8-4-081(a)     Public Urination",41.94013,-87.649266,1,range_interpolation,3200,"N Halsted St",,,Chicago,IL,"Cook County",60657,US,"TIGER/Line® dataset from the US Census Bureau"
6/30/2019,P005675520,"6300 S CAMPBELL ",CHICAGO,Illinois,"8-4-081(a)     Public Urination",41.779072,-87.686092,1,range_interpolation,6300,"S Campbell Ave",,,Chicago,IL,"Cook County",60629,US,"TIGER/Line® dataset from the US Census Bureau"
6/30/2019,P005699195,"5700 S DAMEN ",CHICAGO,Illinois,"8-4-081(a)     Public Urination",41.790152,-87.674545,1,rooftop,5700,"S Damen Ave",,,Chicago,IL,"Cook County",60636,US,"City of Chicago"
6/30/2019,P005663907,"7900 S COTTAGE GROVE ",CHICAGO,Illinois,"8-4-081(a)     Public Urination",41.751136,-87.605215,1,range_interpolation,7900,"S Cottage Grove Ave",,,Chicago,IL,"Cook County",60619,US,"TIGER/Line® dataset from the US Census Bureau"
6/30/2019,P005732130,"10 N HOMAN ",CHICAGO,Illinois,"8-4-081(a)     Public Urination",41.881074,-87.711158,1,range_interpolation,10,"N Homan Ave",,,Chicago,IL,"Cook County",60624,US,"TIGER/Line® dataset from the US Census Bureau"
6/30/2019,P005845567,"10 W 87TH ",CHICAGO,Illinois,"8-4-081(a)     Public Urination",41.736139,-87.624569,1,range_interpolation,10,"W 87th St",,,Chicago,IL,"Cook County",60620,US,"TIGER/Line® dataset from the US Census Bureau"
6/30/2019,P005796659,"4100 S ARCHER ",CHICAGO,Illinois,"8-4-081(a)     Public Urination",41.819599,-87.695791,1,rooftop,4100,"S Archer Ave",,,Chicago,IL,"Cook County",60632,US,"City of Chicago"
6/30/2019,P005852634,"3900 W ROOSEVELT RD ",CHICAGO,Illinois,"8-4-081(a)     Public Urination",41.866429,-87.722898,1,rooftop,3900,"W Roosevelt Rd",,,Chicago,IL,"Cook County",60624,US,Cook
6/30/2019,P005802108,"7400 N WESTERN ",CHICAGO,Illinois,"8-4-081(a)     Public Urination",42.016041,-87.690622,1,rooftop,7400,"N Western Ave",,,Chicago,IL,"Cook County",60645,US,"City of Chicago"
7/1/2019,P003319131,"8100 S COTTAGE GROVE ",CHICAGO,Illinois,"8-4-081(a)     Public Urination",41.747405,-87.605514,1,rooftop,8100,"S Cottage Grove Ave",,,Chicago,IL,"Cook County",60619,US,"City of Chicago"
7/1/2019,P005570019,"4600 S COTTAGE ST ",CHICAGO,Illinois,"8-4-081(a)     Public Urination",41.811193,-87.607008,0.9,rooftop,4600,"S Cottage Grove Ave",,,Chicago,IL,"Cook County",60653,US,"City of Chicago"
7/1/2019,P005692422,"4400 N BROADWAY ",CHICAGO,Illinois,"8-4-081(a)     Public Urination",41.962555,-87.656447,1,rooftop,4400,"N Broadway St",,,Chicago,IL,"Cook County",60640,US,"City of Chicago"
7/1/2019,P005664333,"1600 W 69TH ST ",CHICAGO,Illinois,"8-4-081(a)     Public Urination",41.768401,-87.663897,1,range_interpolation,1600,"W 69th St",,,Chicago,IL,"Cook County",60636,US,"TIGER/Line® dataset from the US Census Bureau"
7/1/2019,P005668289,"1900 W WELLINGTON ",CHICAGO,Illinois,"8-4-081(a)     Public Urination",41.936226,-87.676,1,rooftop,1900,"W Wellington Ave",,,Chicago,IL,"Cook County",60657,US,"City of Chicago"
7/1/2019,P005664119,"8100 S HALSTED ST ",CHICAGO,Illinois,"8-4-081(a)     Public Urination",41.746808,-87.644298,1,rooftop,8100,"S Halsted St",,,Chicago,IL,"Cook County",60620,US,"City of Chicago"
7/1/2019,P005638927,"2100 S HAMLIN ",CHICAGO,Illinois,"8-4-081(a)     Public Urination",41.852723,-87.719888,1,range_interpolation,2100,"S Hamlin Ave",,,Chicago,IL,"Cook County",60623,US,"TIGER/Line® dataset from the US Census Bureau"
7/1/2019,P005621089,"1600 W 63 ST ",CHICAGO,Illinois,"8-4-081(a)     Public Urination",41.77974,-87.664558,1,rooftop,1600,"W 63rd St",,,Chicago,IL,"Cook County",60636,US,"City of Chicago"
7/1/2019,P005793873,"5400 S SPAULDING ",CHICAGO,Illinois,"8-4-081(a)     Public Urination",41.795165,-87.706412,1,rooftop,5400,"S Spaulding Ave",,,Chicago,IL,"Cook County",60632,US,"City of Chicago"
7/1/2019,P005793874,"6200 S ARTESIAN ",CHICAGO,Illinois,"8-4-081(a)     Public Urination",41.780943,-87.685269,1,rooftop,6200,"S Artesian Ave",,,Chicago,IL,"Cook County",60629,US,"City of Chicago"
7/1/2019,P005821970,"9800 S HALSTED ",CHICAGO,Illinois,"8-4-081(a)     Public Urination",41.715624,-87.643461,1,rooftop,9800,"S Halsted St",,,Chicago,IL,"Cook County",60643,US,"City of Chicago"
7/1/2019,P005918798,"3000 W ROOSEVELT ",CHICAGO,Illinois,"8-4-081(a)     Public Urination",41.866771,-87.700997,1,rooftop,3000,"W Roosevelt Rd",,,Chicago,IL,"Cook County",60612,US,"City of Chicago"
7/1/2019,P005807602,"6100 S KING ",CHICAGO,Illinois,"8-4-081(a)     Public Urination",41.783734,-87.615712,1,range_interpolation,6100,"S King Dr",,,Chicago,IL,"Cook County",60637,US,"TIGER/Line® dataset from the US Census Bureau"
7/1/2019,P005822484,"1500 W 91ST ST ",CHICAGO,Illinois,"8-4-081(a)     Public Urination",41.728399,-87.660418,1,range_interpolation,1500,"W 91st St",,,Chicago,IL,"Cook County",60620,US,"TIGER/Line® dataset from the US Census Bureau"
7/2/2019,P005566334,"10 E 95TH ST ",CHICAGO,Illinois,"8-4-081(a)     Public Urination",41.721863,-87.623482,1,range_interpolation,10,"E 95th St",,,Chicago,IL,"Cook County",60619,US,"TIGER/Line® dataset from the US Census Bureau"
7/2/2019,P005567435,"10 E 57TH ",CHICAGO,Illinois,"8-4-081(a)     Public Urination",41.791169,-87.625263,1,range_interpolation,10,"E 57th St",,,Chicago,IL,"Cook County",60637,US,"TIGER/Line® dataset from the US Census Bureau"
7/2/2019,P005662161,"700 S CICERO ",CHICAGO,Illinois,"8-4-081(a)     Public Urination",41.871921,-87.744932,1,range_interpolation,700,"S Cicero Ave",,,Chicago,IL,"Cook County",60644,US,"TIGER/Line® dataset from the US Census Bureau"
7/2/2019,P005668604,"2800 N BROADWAY ",CHICAGO,Illinois,"8-4-081(a)     Public Urination",41.93295,-87.644885,1,range_interpolation,2800,"N Broadway St",,,Chicago,IL,"Cook County",60657,US,"TIGER/Line® dataset from the US Census Bureau"
7/2/2019,P005646686,"10 E 98TH ST ",CHICAGO,Illinois,"8-4-081(a)     Public Urination",41.716136,-87.62239,1,range_interpolation,10,"E 98th St",,,Chicago,IL,"Cook County",60628,US,"TIGER/Line® dataset from the US Census Bureau"
7/2/2019,P005773186,"5100 W MADISON ST ",CHICAGO,Illinois,"8-4-081(a)     Public Urination",41.881084,-87.752649,1,rooftop,5100,"W Madison St",,,Chicago,IL,"Cook County",60644,US,"City of Chicago"
7/2/2019,P005770315,"500 E 103RD ST ",CHICAGO,Illinois,"8-4-081(a)     Public Urination",41.707634,-87.611162,1,rooftop,500,"E 103rd St",,,Chicago,IL,"Cook County",60628,US,"City of Chicago"
7/2/2019,P005918563,"10 E KINZIE ",CHICAGO,Illinois,"8-4-081(a)     Public Urination",41.889405,-87.627693,1,range_interpolation,10,"E Kinzie St",,,Chicago,IL,"Cook County",60611,US,"TIGER/Line® dataset from the US Census Bureau"
7/3/2019,P005560363,"2700 S HALSTED ST ",CHICAGO,Illinois,"8-4-081(a)     Public Urination",41.844362,-87.646431,1,range_interpolation,2700,"S Halsted St",,,Chicago,IL,"Cook County",60608,US,"TIGER/Line® dataset from the US Census Bureau"
7/3/2019,P005633257,"400 E 79TH ST ",CHICAGO,Illinois,"8-4-081(a)     Public Urination",41.751276,-87.614734,1,rooftop,400,"E 79th St",,,Chicago,IL,"Cook County",60619,US,Cook
7/3/2019,P005682820,"600 E 67TH ST ",CHICAGO,Illinois,"8-4-081(a)     Public Urination",41.773227,-87.610423,1,rooftop,600,"E 67th St",,,Chicago,IL,"Cook County",60637,US,"City of Chicago"
7/3/2019,P005668965,"200  MONTROSE HBR DR ",CHICAGO,Illinois,"8-4-081(a)     Public Urination",41.88531,-87.62213,0.33,place,,,,,Chicago,IL,"Cook County",60601,US,"TIGER/Line® dataset from the US Census Bureau"
7/3/2019,P005641281,"3100 W 26TH ST ",CHICAGO,Illinois,"8-4-081(a)     Public Urination",41.844402,-87.702584,1,range_interpolation,3100,"W 26th St",,,Chicago,IL,"Cook County",60623,US,"TIGER/Line® dataset from the US Census Bureau"
7/3/2019,P005736056,"1400 W 17TH ST ",CHICAGO,Illinois,"8-4-081(a)     Public Urination",41.858631,-87.661341,1,range_interpolation,1400,"W 17th St",,,Chicago,IL,"Cook County",60608,US,"TIGER/Line® dataset from the US Census Bureau"
7/3/2019,P005721105,"8100 S ASHLAND ",CHICAGO,Illinois,"8-4-081(a)     Public Urination",41.746595,-87.663726,1,rooftop,8100,"S Ashland Ave",,,Chicago,IL,"Cook County",60620,US,"City of Chicago"
7/3/2019,P005785030,"1300 N CALIFORNIA ",CHICAGO,Illinois,"8-4-081(a)     Public Urination",41.904901,-87.696924,1,range_interpolation,1300,"N California Ave",,,Chicago,IL,"Cook County",60622,US,"TIGER/Line® dataset from the US Census Bureau"
7/3/2019,P005719909,"2800 W NORTH AVE ",CHICAGO,Illinois,"8-4-081(a)     Public Urination",41.910603,-87.697241,1,rooftop,2800,"W North Ave",,,Chicago,IL,"Cook County",60647,US,"City of Chicago"
7/3/2019,P005627676,"4300 N CICERO ",CHICAGO,Illinois,"8-4-081(a)     Public Urination",41.959037,-87.747927,1,rooftop,4300,"N Cicero Ave",,,Chicago,IL,"Cook County",60641,US,"City of Chicago"
7/3/2019,P005844866,"10 N DEARBORN ",CHICAGO,Illinois,"8-4-081(a)     Public Urination",41.882434,-87.629706,1,rooftop,10,"N Dearborn St",,,Chicago,IL,"Cook County",60602,US,"City of Chicago"
7/3/2019,P005806166,"5900 S WASHINGTON ",CHICAGO,Illinois,"8-4-081(a)     Public Urination",41.881998,-87.771856,0.8,range_interpolation,5900,"W Washington Blvd",,,Chicago,IL,"Cook County",60644,US,"TIGER/Line® dataset from the US Census Bureau"
7/3/2019,P005918076,"2900 E 87TH ST ",CHICAGO,Illinois,"8-4-081(a)     Public Urination",41.737642,-87.55369,1,rooftop,2900,"E 87th St",,,Chicago,IL,"Cook County",60617,US,"City of Chicago"
7/3/2019,P005799399,"1000 E 67TH ST ",CHICAGO,Illinois,"8-4-081(a)     Public Urination",41.773337,-87.600901,1,range_interpolation,1000,"E 67th St",,,Chicago,IL,"Cook County",60637,US,"TIGER/Line® dataset from the US Census Bureau"
7/3/2019,P005852586,"1900 E 71ST ",CHICAGO,Illinois,"8-4-081(a)     Public Urination",41.76639,-87.578404,1,rooftop,1900,"E 71st St",,,Chicago,IL,"Cook County",60649,US,"City of Chicago"
7/3/2019,P005830131,"7000 S WESTERN ",CHICAGO,Illinois,"8-4-081(a)     Public Urination",41.766398,-87.683686,1,rooftop,7000,"S Western Ave",,,Chicago,IL,"Cook County",60629,US,"City of Chicago"
7/3/2019,P005811197,"6300 S WESTERN ",CHICAGO,Illinois,"8-4-081(a)     Public Urination",41.779065,-87.683638,1,range_interpolation,6300,"S Western Ave",,,Chicago,IL,"Cook County",60636,US,"TIGER/Line® dataset from the US Census Bureau"
7/4/2019,P005481313,"1600 W 79TH ST ",CHICAGO,Illinois,"8-4-081(a)     Public Urination",41.750207,-87.663437,1,range_interpolation,1600,"W 79th St",,,Chicago,IL,"Cook County",60620,US,"TIGER/Line® dataset from the US Census Bureau"
7/4/2019,P005574902,"6900 N CLARK ST ",CHICAGO,Illinois,"8-4-081(a)     Public Urination",42.006766,-87.673669,1,rooftop,6900,"N Clark St",,,Chicago,IL,"Cook County",60626,US,"City of Chicago"
7/4/2019,P005594159,"4200 S COMMERCIAL ",CHICAGO,Illinois,"8-4-081(a)     Public Urination",42.069806,-87.859101,0.7,rooftop,4200,"Commercial Way",,,Glenview,IL,"Cook County",60025,US,Cook
7/4/2019,P005663894,"100 W 127TH ST ",CHICAGO,Illinois,"8-4-081(a)     Public Urination",41.663642,-87.623154,1,range_interpolation,100,"W 127th St",,,Chicago,IL,"Cook County",60628,US,"TIGER/Line® dataset from the US Census Bureau"
7/4/2019,P005664452,"8000 S COTTAGE GROVE ",CHICAGO,Illinois,"8-4-081(a)     Public Urination",41.749306,-87.605188,1,range_interpolation,8000,"S Cottage Grove Ave",,,Chicago,IL,"Cook County",60619,US,"TIGER/Line® dataset from the US Census Bureau"
7/4/2019,P005685104,"11100 S MICHIGAN ",CHICAGO,Illinois,"8-4-081(a)     Public Urination",41.692407,-87.621385,1,rooftop,11100,"S Michigan Ave",,,Chicago,IL,"Cook County",60628,US,"City of Chicago"
7/4/2019,P005663911,"7900 S COTTAGE GROVE ",CHICAGO,Illinois,"8-4-081(a)     Public Urination",41.751136,-87.605215,1,range_interpolation,7900,"S Cottage Grove Ave",,,Chicago,IL,"Cook County",60619,US,"TIGER/Line® dataset from the US Census Bureau"
7/4/2019,P005683233,"2100 E 71ST ",CHICAGO,Illinois,"8-4-081(a)     Public Urination",41.766423,-87.573605,1,rooftop,2100,"E 71st St",,,Chicago,IL,"Cook County",60649,US,"City of Chicago"
7/4/2019,P005664960,"2200 S MICHIGAN ",CHICAGO,Illinois,"8-4-081(a)     Public Urination",41.852664,-87.624067,1,rooftop,2200,"S Michigan Ave",,,Chicago,IL,"Cook County",60616,US,"City of Chicago"
7/4/2019,P005644245,"3200 W CERMAK RD ",CHICAGO,Illinois,"8-4-081(a)     Public Urination",41.851615,-87.705254,1,range_interpolation,3200,"W Cermak Rd",,,Chicago,IL,"Cook County",60623,US,"TIGER/Line® dataset from the US Census Bureau"
7/4/2019,P005650479,"5600 N MARMORA AVE ",CHICAGO,Illinois,"8-4-081(a)     Public Urination",41.983076,-87.775967,1,rooftop,5600,"N Marmora Ave",,,Chicago,IL,"Cook County",60646,US,"City of Chicago"
7/4/2019,P005717667,"10200 W ZEMKE ",CHICAGO,Illinois,"8-4-081(a)     Public Urination",41.88531,-87.62213,0.33,place,,,,,Chicago,IL,"Cook County",60601,US,"TIGER/Line® dataset from the US Census Bureau"
7/4/2019,P005780931,"5000 S KING DR ",CHICAGO,Illinois,"8-4-081(a)     Public Urination",41.803775,-87.616187,1,range_interpolation,5000,"S King Dr",,,Chicago,IL,"Cook County",60615,US,"TIGER/Line® dataset from the US Census Bureau"
7/4/2019,P005794440,"3600 S KEDZIE ",CHICAGO,Illinois,"8-4-081(a)     Public Urination",41.827951,-87.704911,1,rooftop,3600,"S Kedzie Ave",,,Chicago,IL,"Cook County",60632,US,"City of Chicago"
7/4/2019,P005811212,"5800 S NORMANDY ",CHICAGO,Illinois,"8-4-081(a)     Public Urination",41.786585,-87.789285,1,rooftop,5800,"S Normandy Ave",,,Chicago,IL,"Cook County",60638,US,"City of Chicago"
7/4/2019,P005823580,"100  UNKNOWN ",CHICAGO,Illinois,"8-4-081(a)     Public Urination",41.88531,-87.62213,0.33,place,,,,,Chicago,IL,"Cook County",60601,US,"TIGER/Line® dataset from the US Census Bureau"
7/5/2019,P005504263,"2100 N LINCOLN ",CHICAGO,Illinois,"8-4-081(a)     Public Urination",41.920531,-87.636768,1,rooftop,2100,"N Lincoln Park",,,Chicago,IL,"Cook County",60614,US,"City of Chicago"
7/5/2019,P005573463,"7400 N ROGERS ",CHICAGO,Illinois,"8-4-081(a)     Public Urination",42.016203,-87.675207,1,range_interpolation,7400,"N Rogers Ave",,,Chicago,IL,"Cook County",60626,US,"TIGER/Line® dataset from the US Census Bureau"
7/5/2019,P005699176,"6200 S RACINE ",CHICAGO,Illinois,"8-4-081(a)     Public Urination",41.781277,-87.65455,1,range_interpolation,6200,"S Racine Ave",,,Chicago,IL,"Cook County",60636,US,"TIGER/Line® dataset from the US Census Bureau"
7/5/2019,P005699759,"1600 W 69TH ST ",CHICAGO,Illinois,"8-4-081(a)     Public Urination",41.768401,-87.663897,1,range_interpolation,1600,"W 69th St",,,Chicago,IL,"Cook County",60636,US,"TIGER/Line® dataset from the US Census Bureau"
7/5/2019,P005641282,"3200 W 25TH ST ",CHICAGO,Illinois,"8-4-081(a)     Public Urination",41.846183,-87.705094,1,range_interpolation,3200,"W 25th St",,,Chicago,IL,"Cook County",60623,US,"TIGER/Line® dataset from the US Census Bureau"
7/5/2019,P005735962,"10 N ALBANY ",CHICAGO,Illinois,"8-4-081(a)     Public Urination",41.88131,-87.70382,1,range_interpolation,10,"N Albany Ave",,,Chicago,IL,"Cook County",60612,US,"TIGER/Line® dataset from the US Census Bureau"
7/5/2019,P005721107,"600 S HOMAN ",CHICAGO,Illinois,"8-4-081(a)     Public Urination",41.873477,-87.710781,1,range_interpolation,600,"S Homan Ave",,,Chicago,IL,"Cook County",60624,US,"TIGER/Line® dataset from the US Census Bureau"
7/5/2019,P005703414,"2800 W 38TH ST ",CHICAGO,Illinois,"8-4-081(a)     Public Urination",41.824463,-87.694661,1,range_interpolation,2800,"W 38th St",,,Chicago,IL,"Cook County",60632,US,"TIGER/Line® dataset from the US Census Bureau"
7/5/2019,P005728058,"10 E HARRISON ",CHICAGO,Illinois,"8-4-081(a)     Public Urination",41.874263,-87.626738,1,rooftop,10,"E Harrison St",,,Chicago,IL,"Cook County",60605,US,"City of Chicago"
7/5/2019,P005620371,"3400 S INDIANA ",CHICAGO,Illinois,"8-4-081(a)     Public Urination",41.832642,-87.622215,1,rooftop,3400,"S Indiana Ave",,,Chicago,IL,"Cook County",60616,US,"City of Chicago"
7/5/2019,P005741972,"6100 S MARTIN L KING DR ",CHICAGO,Illinois,"8-4-081(a)     Public Urination",41.783594,-87.615952,0.81,nearest_rooftop_match,6106,"S Martin Luther King Jr Dr",,,Chicago,IL,"Cook County",60637,US,Cook
7/5/2019,P005770587,"3000 E 89TH ST ",CHICAGO,Illinois,"8-4-081(a)     Public Urination",41.73388,-87.551345,1,range_interpolation,3000,"E 89th St",,,Chicago,IL,"Cook County",60617,US,"TIGER/Line® dataset from the US Census Bureau"
7/5/2019,P005821848,"9100 S HALSTED ",CHICAGO,Illinois,"8-4-081(a)     Public Urination",41.728635,-87.6438,1,rooftop,9100,"S Halsted St",,,Chicago,IL,"Cook County",60620,US,"City of Chicago"
7/5/2019,P005830102,"4600 W 63RD ST ",CHICAGO,Illinois,"8-4-081(a)     Public Urination",41.778336,-87.737397,1,range_interpolation,4600,"W 63rd St",,,Chicago,IL,"Cook County",60629,US,"TIGER/Line® dataset from the US Census Bureau"
7/6/2019,P004858417,"4400 W MADISON ",CHICAGO,Illinois,"8-4-081(a)     Public Urination",41.881021,-87.735801,1,rooftop,4400,"W Madison St",,,Chicago,IL,"Cook County",60624,US,"City of Chicago"
7/6/2019,P005478854,"10 W INDIANA ",CHICAGO,Illinois,"8-4-081(a)     Public Urination",42.09377,-87.731348,0.9,rooftop,10,"Indian Hill Rd",,,Winnetka,IL,"Cook County",60093,US,Cook
7/6/2019,P005456223,"10 S LOCKWOOD ST ",CHICAGO,Illinois,"8-4-081(a)     Public Urination",41.880249,-87.757846,1,range_interpolation,10,"S Lockwood Ave",,,Chicago,IL,"Cook County",60644,US,"TIGER/Line® dataset from the US Census Bureau"
7/6/2019,P005513298,"1100 W ARGYLE ST ",CHICAGO,Illinois,"8-4-081(a)     Public Urination",41.973508,-87.657962,1,rooftop,1100,"W Argyle St",,,Chicago,IL,"Cook County",60640,US,"City of Chicago"
7/6/2019,P005560231,"2500 S STEWART ",CHICAGO,Illinois,"8-4-081(a)     Public Urination",41.846221,-87.636575,1,range_interpolation,2500,"S Stewart Ave",,,Chicago,IL,"Cook County",60616,US,"TIGER/Line® dataset from the US Census Bureau"
