NOV_ISSUED_DATE,NOV_NUMBER,"Street Address",City,State,VIOLATION_DESCRIPTION,Latitude,Longitude,"Accuracy Score","Accuracy Type",Number,Street,"Unit Type","Unit Number",City,State,County,Zip,Country,Source
1/1/2019,P005332121,"1500 N MILWAUKEE ",CHICAGO,Illinois,"8-4-081(a)     Public Urination",41.908829,-87.674813,1,range_interpolation,1500,"N Milwaukee Ave",,,Chicago,IL,"Cook County",60622,US,"TIGER/Line® dataset from the US Census Bureau"
1/1/2019,P005480464,"7900 S PAULINA ST ",CHICAGO,Illinois,"8-4-081(a)     Public Urination",41.750174,-87.665863,1,range_interpolation,7900,"S Paulina St",,,Chicago,IL,"Cook County",60620,US,"TIGER/Line® dataset from the US Census Bureau"
1/1/2019,P005528205,"3000 W MADISON ",CHICAGO,Illinois,"8-4-081(a)     Public Urination",41.88131,-87.701592,1,rooftop,3000,"W Madison St",,,Chicago,IL,"Cook County",60612,US,"City of Chicago"
1/1/2019,P005564244,"2200 S ARCHER ",CHICAGO,Illinois,"8-4-081(a)     Public Urination",41.852658,-87.635826,1,rooftop,2200,"S Archer Ave",,,Chicago,IL,"Cook County",60616,US,"City of Chicago"
1/1/2019,P005641317,"2200 S HOYNE ",CHICAGO,Illinois,"8-4-081(a)     Public Urination",41.851986,-87.678292,1,range_interpolation,2200,"S Hoyne Ave",,,Chicago,IL,"Cook County",60608,US,"TIGER/Line® dataset from the US Census Bureau"
1/1/2019,P005720771,"800 W WEBSTER ",CHICAGO,Illinois,"8-4-081(a)     Public Urination",41.921666,-87.648632,1,range_interpolation,800,"W Webster Ave",,,Chicago,IL,"Cook County",60614,US,"TIGER/Line® dataset from the US Census Bureau"
1/1/2019,P005618512,"10 E JACKSON ",CHICAGO,Illinois,"8-4-081(a)     Public Urination",41.878455,-87.627165,1,rooftop,10,"E Jackson Blvd",,,Chicago,IL,"Cook County",60604,US,"City of Chicago"
1/1/2019,P005619550,"6300 S MAPLEWOOD ",CHICAGO,Illinois,"8-4-081(a)     Public Urination",41.779054,-87.687304,1,range_interpolation,6300,"S Maplewood Ave",,,Chicago,IL,"Cook County",60629,US,"TIGER/Line® dataset from the US Census Bureau"
1/1/2019,P005908915,"900 W NEWPORT ",CHICAGO,Illinois,"8-4-081(a)     Public Urination",41.944751,-87.652015,1,rooftop,900,"W Newport Ave",,,Chicago,IL,"Cook County",60657,US,"City of Chicago"
1/2/2019,P005177109,"4400 N BROADWAY ",CHICAGO,Illinois,"8-4-081(a)     Public Urination",41.962555,-87.656447,1,rooftop,4400,"N Broadway St",,,Chicago,IL,"Cook County",60640,US,"City of Chicago"
1/2/2019,P005485573,"10600 S HALSTED ST ",CHICAGO,Illinois,"8-4-081(a)     Public Urination",41.701307,-87.642663,1,range_interpolation,10600,"S Halsted St",,,Chicago,IL,"Cook County",60628,US,"TIGER/Line® dataset from the US Census Bureau"
1/2/2019,P005568576,"10 E ROOSEVELT RD ",CHICAGO,Illinois,"8-4-081(a)     Public Urination",41.867624,-87.627264,1,range_interpolation,10,"E Roosevelt Rd",,,Chicago,IL,"Cook County",60605,US,"TIGER/Line® dataset from the US Census Bureau"
1/2/2019,P005633745,"10 E 103RD ST ",CHICAGO,Illinois,"8-4-081(a)     Public Urination",41.707405,-87.623109,1,rooftop,10,"E 103rd St",,,Chicago,IL,"Cook County",60628,US,"City of Chicago"
1/2/2019,P005570771,"200 E 35TH ST ",CHICAGO,Illinois,"8-4-081(a)     Public Urination",41.831201,-87.62142,1,rooftop,200,"E 35th St",,,Chicago,IL,"Cook County",60616,US,"City of Chicago"
1/2/2019,P005787831,"6100 S KEDZIE ",CHICAGO,Illinois,"8-4-081(a)     Public Urination",41.782456,-87.703245,1,range_interpolation,6100,"S Kedzie Ave",,,Chicago,IL,"Cook County",60629,US,"TIGER/Line® dataset from the US Census Bureau"
1/2/2019,P005724327,"11300 S MICHIGAN ",CHICAGO,Illinois,"8-4-081(a)     Public Urination",41.688818,-87.621345,1,rooftop,11300,"S Michigan Ave",,,Chicago,IL,"Cook County",60628,US,"City of Chicago"
1/2/2019,P005604286,"100 W 79TH ST ",CHICAGO,Illinois,"8-4-081(a)     Public Urination",41.751174,-87.627263,1,rooftop,100,"W 79th St",,,Chicago,IL,"Cook County",60620,US,Cook
1/2/2019,P005912297,"100 E LOWER WACKER ",CHICAGO,Illinois,"8-4-081(a)     Public Urination",41.888449,-87.625256,1,range_interpolation,100,"E Lower Wacker Dr",,,Chicago,IL,"Cook County",60606,US,"TIGER/Line® dataset from the US Census Bureau"
1/3/2019,P005498595,"9800 W MADISON ",CHICAGO,Illinois,"8-4-081(a)     Public Urination",41.881387,-87.683341,0.4,street_center,,"Madison St",,,Chicago,IL,"Cook County",60612,US,"TIGER/Line® dataset from the US Census Bureau"
1/3/2019,P005485083,"10300 S WESTERN ",CHICAGO,Illinois,"8-4-081(a)     Public Urination",41.706126,-87.682034,1,rooftop,10300,"S Western Ave",,,Chicago,IL,"Cook County",60655,US,"City of Chicago"
1/3/2019,P005679897,"100 W DIVISION ",CHICAGO,Illinois,"8-4-081(a)     Public Urination",41.90375,-87.631444,1,range_interpolation,100,"W Division St",,,Chicago,IL,"Cook County",60610,US,"TIGER/Line® dataset from the US Census Bureau"
1/3/2019,P005787757,"2300 W 68TH ST ",CHICAGO,Illinois,"8-4-081(a)     Public Urination",41.770024,-87.680856,1,range_interpolation,2300,"W 68th St",,,Chicago,IL,"Cook County",60636,US,"TIGER/Line® dataset from the US Census Bureau"
1/4/2019,P005489783,"3500 N SHEFFIELD ",CHICAGO,Illinois,"8-4-081(a)     Public Urination",41.945478,-87.654522,1,rooftop,3500,"N Sheffield Ave",,,Chicago,IL,"Cook County",60657,US,Cook
1/4/2019,P005564245,"3000 S MORGAN ",CHICAGO,Illinois,"8-4-081(a)     Public Urination",41.4769,-87.644109,0.7,rooftop,3000,"Morgan St",,,Steger,IL,"Cook County",60475,US,Cook
1/4/2019,P005633760,"6300 S ASHLAND ",CHICAGO,Illinois,"8-4-081(a)     Public Urination",41.779179,-87.664623,1,rooftop,6300,"S Ashland Ave",,,Chicago,IL,"Cook County",60636,US,"City of Chicago"
1/4/2019,P005633873,"100  UNKNOWN ",CHICAGO,Illinois,"8-4-081(a)     Public Urination",41.88531,-87.62213,0.33,place,,,,,Chicago,IL,"Cook County",60601,US,"TIGER/Line® dataset from the US Census Bureau"
1/4/2019,P005551065,"3400 W OGDEN ",CHICAGO,Illinois,"8-4-081(a)     Public Urination",41.856513,-87.710578,1,rooftop,3400,"W Ogden Ave",,,Chicago,IL,"Cook County",60623,US,"City of Chicago"
1/4/2019,P005473570,"3900 W CHICAGO ",CHICAGO,Illinois,"8-4-081(a)     Public Urination",41.895679,-87.723815,1,rooftop,3900,"W Chicago Ave",,,Chicago,IL,"Cook County",60651,US,"City of Chicago"
1/4/2019,P005690548,"6000 S KEDZIE ST ",CHICAGO,Illinois,"8-4-081(a)     Public Urination",41.784309,-87.703646,1,rooftop,6000,"S Kedzie Ave",,,Chicago,IL,"Cook County",60629,US,"City of Chicago"
1/4/2019,P005671375,"1900 S CENTRAL PARK ",CHICAGO,Illinois,"8-4-081(a)     Public Urination",41.854346,-87.71508,0.7,range_interpolation,1900,"S Central Park Ave",,,Chicago,IL,"Cook County",60623,US,"TIGER/Line® dataset from the US Census Bureau"
1/4/2019,P005670820,"10 E ROOSEVELT RD ",CHICAGO,Illinois,"8-4-081(a)     Public Urination",41.867624,-87.627264,1,range_interpolation,10,"E Roosevelt Rd",,,Chicago,IL,"Cook County",60605,US,"TIGER/Line® dataset from the US Census Bureau"
1/4/2019,P005642208,"2200 S WHIPPLE ",CHICAGO,Illinois,"8-4-081(a)     Public Urination",41.851668,-87.70158,1,range_interpolation,2200,"S Whipple St",,,Chicago,IL,"Cook County",60623,US,"TIGER/Line® dataset from the US Census Bureau"
1/4/2019,P005671411,"10 W O HARE CTA PL ",CHICAGO,Illinois,"10-8-526/016-110-1.17  Urinating, Defecating or Causing the ",41.88531,-87.62213,0.33,place,,,,,Chicago,IL,"Cook County",60601,US,"TIGER/Line® dataset from the US Census Bureau"
1/4/2019,P005703342,"600 N CLARK ",CHICAGO,Illinois,"8-4-081(a)     Public Urination",41.89309,-87.631507,1,rooftop,600,"N Clark St",,,Chicago,IL,"Cook County",60610,US,"City of Chicago"
1/4/2019,P005721936,"10 E 109TH ",CHICAGO,Illinois,"8-4-081(a)     Public Urination",41.69638,-87.623034,1,range_interpolation,10,"E 109th St",,,Chicago,IL,"Cook County",60628,US,"TIGER/Line® dataset from the US Census Bureau"
1/4/2019,P005671271,"1900 S CENTRAL PK ",CHICAGO,Illinois,"8-4-081(a)     Public Urination",41.854346,-87.71508,0.7,range_interpolation,1900,"S Central Park Ave",,,Chicago,IL,"Cook County",60623,US,"TIGER/Line® dataset from the US Census Bureau"
1/4/2019,P005607508,"100  UNKNOWN ",CHICAGO,Illinois,"8-4-081(a)     Public Urination",41.88531,-87.62213,0.33,place,,,,,Chicago,IL,"Cook County",60601,US,"TIGER/Line® dataset from the US Census Bureau"
1/4/2019,P005912298,"200 S WABASH ",CHICAGO,Illinois,"8-4-081(a)     Public Urination",41.879372,-87.626125,1,range_interpolation,200,"S Wabash Ave",,,Chicago,IL,"Cook County",60605,US,"TIGER/Line® dataset from the US Census Bureau"
1/5/2019,P005303689,"7900 S EXCHANGE ",CHICAGO,Illinois,"8-4-081(a)     Public Urination",41.751764,-87.552584,1,range_interpolation,7900,"S Exchange Ave",,,Chicago,IL,"Cook County",60617,US,"TIGER/Line® dataset from the US Census Bureau"
1/5/2019,P005485466,"11100 S HALSTED ST ",CHICAGO,Illinois,"8-4-081(a)     Public Urination",41.692205,-87.642377,1,range_interpolation,11100,"S Halsted St",,,Chicago,IL,"Cook County",60628,US,"TIGER/Line® dataset from the US Census Bureau"
1/5/2019,P005408990,"500 E PERSHING RD ",CHICAGO,Illinois,"8-4-081(a)     Public Urination",41.824018,-87.614363,1,range_interpolation,500,"E Pershing Rd",,,Chicago,IL,"Cook County",60653,US,"TIGER/Line® dataset from the US Census Bureau"
1/5/2019,P005525387,"1900 W SUPERIOR ",CHICAGO,Illinois,"8-4-081(a)     Public Urination",41.894882,-87.674584,1,range_interpolation,1900,"W Superior St",,,Chicago,IL,"Cook County",60622,US,"TIGER/Line® dataset from the US Census Bureau"
1/5/2019,P005521282,"1200 S UNION ",CHICAGO,Illinois,"8-4-081(a)     Public Urination",41.867017,-87.645163,1,range_interpolation,1200,"S Union Ave",,,Chicago,IL,"Cook County",60616,US,"TIGER/Line® dataset from the US Census Bureau"
1/5/2019,P005547524,"1500 W 59TH ST ",CHICAGO,Illinois,"8-4-081(a)     Public Urination",41.78663,-87.661963,1,range_interpolation,1500,"W 59th St",,,Chicago,IL,"Cook County",60636,US,"TIGER/Line® dataset from the US Census Bureau"
1/5/2019,P005633223,"13200 S ST LAWRENCE ",CHICAGO,Illinois,"8-4-081(a)     Public Urination",41.655292,-87.607868,0.9,rooftop,13200,"S St Lawrence Ave",,,Riverdale,IL,"Cook County",60827,US,"City of Chicago"
1/5/2019,P005679199,"400 N STATE ",CHICAGO,Illinois,"8-4-081(a)     Public Urination",41.889505,-87.628191,1,rooftop,400,"N State St",,,Chicago,IL,"Cook County",60654,US,"City of Chicago"
1/5/2019,P005615711,"1600 W ROOSEVELT ",CHICAGO,Illinois,"8-4-081(a)     Public Urination",41.866705,-87.666384,1,range_interpolation,1600,"W Roosevelt Rd",,,Chicago,IL,"Cook County",60608,US,"TIGER/Line® dataset from the US Census Bureau"
1/5/2019,P005719471,"2400 N MILWAUKEE ",CHICAGO,Illinois,"8-4-081(a)     Public Urination",41.924929,-87.700404,1,range_interpolation,2400,"N Milwaukee Ave",,,Chicago,IL,"Cook County",60647,US,"TIGER/Line® dataset from the US Census Bureau"
1/5/2019,P005721475,"100 W 103RD ST ",CHICAGO,Illinois,"8-4-081(a)     Public Urination",41.706982,-87.625918,1,range_interpolation,100,"W 103rd St",,,Chicago,IL,"Cook County",60628,US,"TIGER/Line® dataset from the US Census Bureau"
1/5/2019,P005787879,"6100 S KEDZIE ",CHICAGO,Illinois,"8-4-081(a)     Public Urination",41.782456,-87.703245,1,range_interpolation,6100,"S Kedzie Ave",,,Chicago,IL,"Cook County",60629,US,"TIGER/Line® dataset from the US Census Bureau"
1/5/2019,P005703904,"2800 S PULASKI ",CHICAGO,Illinois,"8-4-081(a)     Public Urination",41.840443,-87.724803,1,rooftop,2800,"S Pulaski Rd",,,Chicago,IL,"Cook County",60623,US,"City of Chicago"
1/5/2019,P005916971,"800 W CORNELIA ",CHICAGO,Illinois,"8-4-081(a)     Public Urination",41.945721,-87.649788,1,rooftop,800,"W Cornelia Ave",,,Chicago,IL,"Cook County",60657,US,"City of Chicago"
1/6/2019,P005485756,"1500 W 95TH ST ",CHICAGO,Illinois,"8-4-081(a)     Public Urination",41.721135,-87.660686,1,range_interpolation,1500,"W 95th St",,,Chicago,IL,"Cook County",60643,US,"TIGER/Line® dataset from the US Census Bureau"
1/6/2019,P005485705,"9900 S HALSTED ",CHICAGO,Illinois,"8-4-081(a)     Public Urination",41.714063,-87.643002,1,range_interpolation,9900,"S Halsted St",,,Chicago,IL,"Cook County",60628,US,"TIGER/Line® dataset from the US Census Bureau"
1/6/2019,P005558664,"3300 W MONTROSE ",CHICAGO,Illinois,"8-4-081(a)     Public Urination",41.961428,-87.710889,1,rooftop,3300,"W Montrose Ave",,,Chicago,IL,"Cook County",60625,US,"City of Chicago"
1/6/2019,P005640136,"1800 S ST LOUIS ",CHICAGO,Illinois,"8-4-081(a)     Public Urination",41.857053,-87.713069,1,rooftop,1800,"S St Louis Ave",,,Chicago,IL,"Cook County",60623,US,"City of Chicago"
1/6/2019,P005555722,"3900 W LAWRENCE ",CHICAGO,Illinois,"8-4-081(a)     Public Urination",41.968535,-87.725993,1,rooftop,3900,"W Lawrence Ave",,,Chicago,IL,"Cook County",60625,US,"City of Chicago"
1/6/2019,P005599678,"900 E WALDRON DR ",CHICAGO,Illinois,"8-4-081(a)     Public Urination",41.860502,-87.613956,0.6,street_center,,"E Waldron Dr",,,Chicago,IL,"Cook County",60616,US,"TIGER/Line® dataset from the US Census Bureau"
1/6/2019,P005616026,"3000 W CHICAGO ",CHICAGO,Illinois,"8-4-081(a)     Public Urination",41.895445,-87.702203,1,range_interpolation,3000,"W Chicago Ave",,,Chicago,IL,"Cook County",60622,US,"TIGER/Line® dataset from the US Census Bureau"
1/6/2019,P005726472,"9700 S WALLACE ",CHICAGO,Illinois,"8-4-081(a)     Public Urination",41.717765,-87.638617,1,rooftop,9700,"S Wallace St",,,Chicago,IL,"Cook County",60628,US,"City of Chicago"
1/6/2019,P005787622,"5100 S PULASKI ",CHICAGO,Illinois,"8-4-081(a)     Public Urination",41.801342,-87.720861,1,rooftop,5100,"S Pulaski Rd",,,Chicago,IL,"Cook County",60632,US,"City of Chicago"
1/6/2019,P005613311,"1400 S MUSEUM CAMPUS DR ",CHICAGO,Illinois,"8-4-081(a)     Public Urination",41.864925,-87.61406,1,range_interpolation,1400,"Museum Campus Dr",,,Chicago,IL,"Cook County",60605,US,"TIGER/Line® dataset from the US Census Bureau"
1/6/2019,P005614254,"1400 S MUSEUM CAMPUS DR ",CHICAGO,Illinois,"8-4-081(a)     Public Urination",41.864925,-87.61406,1,range_interpolation,1400,"Museum Campus Dr",,,Chicago,IL,"Cook County",60605,US,"TIGER/Line® dataset from the US Census Bureau"
1/6/2019,P005614255,"1400 S MUSEUM CAMPUS DR ",CHICAGO,Illinois,"8-4-081(a)     Public Urination",41.864925,-87.61406,1,range_interpolation,1400,"Museum Campus Dr",,,Chicago,IL,"Cook County",60605,US,"TIGER/Line® dataset from the US Census Bureau"
1/6/2019,P005745146,"1400 S MUSEUM CAMPUS ",CHICAGO,Illinois,"8-4-081(a)     Public Urination",41.792612,-87.582151,0.5,street_center,,"E Museum Dr",,,Chicago,IL,"Cook County",60637,US,"TIGER/Line® dataset from the US Census Bureau"
1/6/2019,P005922445,"11900 S MICHIGAN ",CHICAGO,Illinois,"8-4-081(a)     Public Urination",41.6779,-87.620864,1,rooftop,11900,"S Michigan Ave",,,Chicago,IL,"Cook County",60628,US,"City of Chicago"
1/7/2019,P003320056,"7900 S PAULINA ",CHICAGO,Illinois,"8-4-081(a)     Public Urination",41.750174,-87.665863,1,range_interpolation,7900,"S Paulina St",,,Chicago,IL,"Cook County",60620,US,"TIGER/Line® dataset from the US Census Bureau"
1/7/2019,P005332389,"1500 N MILWAUKEE ",CHICAGO,Illinois,"8-4-081(a)     Public Urination",41.908829,-87.674813,1,range_interpolation,1500,"N Milwaukee Ave",,,Chicago,IL,"Cook County",60622,US,"TIGER/Line® dataset from the US Census Bureau"
1/7/2019,P005504817,"10 W HUBBARD ST ",CHICAGO,Illinois,"8-4-081(a)     Public Urination",41.890303,-87.628623,1,rooftop,10,"W Hubbard St",,,Chicago,IL,"Cook County",60654,US,"City of Chicago"
1/7/2019,P005479703,"7900 S COTTAGE GR ",CHICAGO,Illinois,"8-4-081(a)     Public Urination",41.751136,-87.605215,0.8,range_interpolation,7900,"S Cottage Grove Ave",,,Chicago,IL,"Cook County",60619,US,"TIGER/Line® dataset from the US Census Bureau"
1/7/2019,P005575726,"5500 N WINTHROOP ",CHICAGO,Illinois,"8-4-081(a)     Public Urination",41.981994,-87.658379,1,rooftop,5500,"N Winthrop Ave",,,Chicago,IL,"Cook County",60640,US,"City of Chicago"
1/7/2019,P005633783,"11900 S MICHIGAN ",CHICAGO,Illinois,"8-4-081(a)     Public Urination",41.6779,-87.620864,1,rooftop,11900,"S Michigan Ave",,,Chicago,IL,"Cook County",60628,US,"City of Chicago"
1/7/2019,P005578522,"6300 S VERNON ",CHICAGO,Illinois,"8-4-081(a)     Public Urination",41.78011,-87.61441,1,range_interpolation,6300,"S Vernon Ave",,,Chicago,IL,"Cook County",60637,US,"TIGER/Line® dataset from the US Census Bureau"
1/7/2019,P005682979,"1900 E 71ST ST ",CHICAGO,Illinois,"8-4-081(a)     Public Urination",41.76639,-87.578404,1,rooftop,1900,"E 71st St",,,Chicago,IL,"Cook County",60649,US,"City of Chicago"
1/7/2019,P005652087,"1100 N MONTICELLO ",CHICAGO,Illinois,"8-4-081(a)     Public Urination",41.901069,-87.717717,1,range_interpolation,1100,"N Monticello Ave",,,Chicago,IL,"Cook County",60651,US,"TIGER/Line® dataset from the US Census Bureau"
1/7/2019,P005633540,"100 E 119TH ST ",CHICAGO,Illinois,"8-4-081(a)     Public Urination",41.678208,-87.620509,1,range_interpolation,100,"E 119th St",,,Chicago,IL,"Cook County",60628,US,"TIGER/Line® dataset from the US Census Bureau"
1/7/2019,P005651274,"7300 N WINCHESTER ALY ",CHICAGO,Illinois,"8-4-081(a)     Public Urination",42.014389,-87.679047,1,range_interpolation,7300,"N Winchester Ave",,,Chicago,IL,"Cook County",60626,US,"TIGER/Line® dataset from the US Census Bureau"
1/7/2019,P005724904,"10400 S MICHIGAN ",CHICAGO,Illinois,"8-4-081(a)     Public Urination",41.705237,-87.620491,0.9,range_interpolation,10400,"S Michigan Ave",,,Chicago,IL,"Cook County",60628,US,"TIGER/Line® dataset from the US Census Bureau"
1/7/2019,P005747791,"100 W LAKE ST ",CHICAGO,Illinois,"8-4-081(a)     Public Urination",41.885592,-87.630975,1,range_interpolation,100,"W Lake St",,,Chicago,IL,"Cook County",60661,US,"TIGER/Line® dataset from the US Census Bureau"
1/7/2019,P005908986,"3700 N RACINE ",CHICAGO,Illinois,"8-4-081(a)     Public Urination",41.949147,-87.65949,1,rooftop,3700,"N Racine Ave",,,Chicago,IL,"Cook County",60613,US,Cook
1/8/2019,P005485307,"9800 S HALSTED ST ",CHICAGO,Illinois,"8-4-081(a)     Public Urination",41.715624,-87.643461,1,rooftop,9800,"S Halsted St",,,Chicago,IL,"Cook County",60643,US,"City of Chicago"
1/8/2019,P005640998,"2400 W 21ST ST ",CHICAGO,Illinois,"8-4-081(a)     Public Urination",41.854163,-87.686776,1,rooftop,2400,"W 21st St",,,Chicago,IL,"Cook County",60608,US,"City of Chicago"
1/8/2019,P005548315,"1000 W 59 ST ",CHICAGO,Illinois,"8-4-081(a)     Public Urination",41.786806,-87.649827,1,range_interpolation,1000,"W 59th St",,,Chicago,IL,"Cook County",60621,US,"TIGER/Line® dataset from the US Census Bureau"
1/8/2019,P005595586,"8700 S COMMERCIAL ",CHICAGO,Illinois,"8-4-081(a)     Public Urination",41.737235,-87.551836,1,rooftop,8700,"S Commercial Ave",,,Chicago,IL,"Cook County",60617,US,"City of Chicago"
1/8/2019,P005545864,"1500 W 55TH ST ",CHICAGO,Illinois,"8-4-081(a)     Public Urination",41.793919,-87.662159,1,range_interpolation,1500,"W 55th St",,,Chicago,IL,"Cook County",60609,US,"TIGER/Line® dataset from the US Census Bureau"
1/8/2019,P005672846,"4000 W MADISON ST ",CHICAGO,Illinois,"8-4-081(a)     Public Urination",41.881137,-87.725899,1,rooftop,4000,"W Madison St",,,Chicago,IL,"Cook County",60624,US,"City of Chicago"
1/8/2019,P005633003,"10 E 111TH ",CHICAGO,Illinois,"8-4-081(a)     Public Urination",41.691941,-87.622636,1,rooftop,10,"E 111th Pl",,,Chicago,IL,"Cook County",60628,US,"City of Chicago"
1/8/2019,P005726531,"11000 S WENTWORTH ",CHICAGO,Illinois,"8-4-081(a)     Public Urination",41.694197,-87.627946,1,range_interpolation,11000,"S Wentworth Ave",,,Chicago,IL,"Cook County",60628,US,"TIGER/Line® dataset from the US Census Bureau"
1/8/2019,P005621216,"400 W 62ND PLACE ",CHICAGO,Illinois,"8-4-081(a)     Public Urination",41.781623,-87.635097,0.7,range_interpolation,400,"W 62nd St",,,Chicago,IL,"Cook County",60621,US,"TIGER/Line® dataset from the US Census Bureau"
1/8/2019,P005712623,"100 N STATE ",CHICAGO,Illinois,"8-4-081(a)     Public Urination",41.880537,-87.62816,1,rooftop,100,"S State St",,,Chicago,IL,"Cook County",60603,US,"City of Chicago"
1/8/2019,P005712625,"100 N STATE ",CHICAGO,Illinois,"8-4-081(a)     Public Urination",41.880537,-87.62816,1,rooftop,100,"S State St",,,Chicago,IL,"Cook County",60603,US,"City of Chicago"
1/8/2019,P005908916,"3800 N PAULINA ",CHICAGO,Illinois,"8-4-081(a)     Public Urination",41.950733,-87.671755,1,rooftop,3800,"N Paulina St",,,Chicago,IL,"Cook County",60613,US,"City of Chicago"
1/9/2019,P005287624,"6300 W DIVERSEY ",CHICAGO,Illinois,"8-4-081(a)     Public Urination",41.931316,-87.783447,1,rooftop,6300,"W Diversey Ave",,,Chicago,IL,"Cook County",60634,US,"City of Chicago"
1/9/2019,P005389348,"7000 S CHAPPEL ",CHICAGO,Illinois,"8-4-081(a)     Public Urination",41.767765,-87.575482,1,rooftop,7000,"S Chappel Ave",,,Chicago,IL,"Cook County",60649,US,"City of Chicago"
1/9/2019,P005464549,"400 N PARKSIDE ",CHICAGO,Illinois,"8-4-081(a)     Public Urination",41.887406,-87.766764,1,range_interpolation,400,"N Parkside Ave",,,Chicago,IL,"Cook County",60644,US,"TIGER/Line® dataset from the US Census Bureau"
1/9/2019,P005513125,"5300 N BROADWAY ",CHICAGO,Illinois,"8-4-081(a)     Public Urination",41.978411,-87.660343,1,rooftop,5300,"N Broadway St",,,Chicago,IL,"Cook County",60640,US,"City of Chicago"
1/9/2019,P005558502,"1600 N GREENLEAF ",CHICAGO,Illinois,"8-4-081(a)     Public Urination",42.010616,-87.670677,0.9,rooftop,1600,"W Greenleaf Ave",,,Chicago,IL,"Cook County",60626,US,"City of Chicago"
1/9/2019,P005689873,"6800 S KEDZIE AV ",CHICAGO,Illinois,"8-4-081(a)     Public Urination",41.770135,-87.702939,1,range_interpolation,6800,"S Kedzie Ave",,,Chicago,IL,"Cook County",60629,US,"TIGER/Line® dataset from the US Census Bureau"
1/9/2019,P005640552,"2600 W CERMAK ",CHICAGO,Illinois,"8-4-081(a)     Public Urination",41.852237,-87.691029,1,rooftop,2600,"W Cermak Rd",,,Chicago,IL,"Cook County",60608,US,"City of Chicago"
1/9/2019,P005726660,"9500 S ASHLAND ",CHICAGO,Illinois,"8-4-081(a)     Public Urination",41.720786,-87.662885,1,rooftop,9500,"S Ashland Ave",,,Chicago,IL,"Cook County",60620,US,"City of Chicago"
1/9/2019,P005701661,"11600 S LAFAYETTE ",CHICAGO,Illinois,"8-4-081(a)     Public Urination",41.682378,-87.624038,1,range_interpolation,11600,"S Lafayette Ave",,,Chicago,IL,"Cook County",60628,US,"TIGER/Line® dataset from the US Census Bureau"
1/9/2019,P005610859,"4800 W GLADYS ",CHICAGO,Illinois,"8-4-081(a)     Public Urination",41.875753,-87.7451,1,range_interpolation,4800,"W Gladys Ave",,,Chicago,IL,"Cook County",60644,US,"TIGER/Line® dataset from the US Census Bureau"
1/10/2019,P005450869,"4800 W CHICAGO ",CHICAGO,Illinois,"8-4-081(a)     Public Urination",41.895246,-87.746187,1,rooftop,4800,"W Chicago Ave",,,Chicago,IL,"Cook County",60651,US,"City of Chicago"
1/10/2019,P005633231,"10800 S MICHIGAN ",CHICAGO,Illinois,"8-4-081(a)     Public Urination",41.697889,-87.621235,1,rooftop,10800,"S Michigan Ave",,,Chicago,IL,"Cook County",60628,US,"City of Chicago"
1/10/2019,P005658026,"3400 S DAMEN ",CHICAGO,Illinois,"8-4-081(a)     Public Urination",41.832056,-87.675327,0.9,range_interpolation,3400,"S Damen Ave",,,Chicago,IL,"Cook County",60608,US,"TIGER/Line® dataset from the US Census Bureau"
1/10/2019,P005724926,"10800 S MICHIGAN ",CHICAGO,Illinois,"8-4-081(a)     Public Urination",41.697889,-87.621235,1,rooftop,10800,"S Michigan Ave",,,Chicago,IL,"Cook County",60628,US,"City of Chicago"
1/10/2019,P005787892,"5500 S LARAMIE ",CHICAGO,Illinois,"8-4-081(a)     Public Urination",41.793151,-87.752827,0.73,nearest_rooftop_match,5454,"S Laramie Ave",,,Chicago,IL,"Cook County",60638,US,"City of Chicago"
1/10/2019,P005739716,"4900 N WINTHROP ",CHICAGO,Illinois,"8-4-081(a)     Public Urination",41.971687,-87.657687,1,range_interpolation,4900,"N Winthrop Ave",,,Chicago,IL,"Cook County",60640,US,"TIGER/Line® dataset from the US Census Bureau"
1/10/2019,P005787486,"2400 W 71ST ST ",CHICAGO,Illinois,"8-4-081(a)     Public Urination",41.764551,-87.683242,1,range_interpolation,2400,"W 71st St",,,Chicago,IL,"Cook County",60629,US,"TIGER/Line® dataset from the US Census Bureau"
1/10/2019,P005750205,"7000 S WESTERN ",CHICAGO,Illinois,"8-4-081(a)     Public Urination",41.766398,-87.683686,1,rooftop,7000,"S Western Ave",,,Chicago,IL,"Cook County",60629,US,"City of Chicago"
1/10/2019,P005703930,"10 W HUBBARD ST ",CHICAGO,Illinois,"8-4-081(a)     Public Urination",41.890303,-87.628623,1,rooftop,10,"W Hubbard St",,,Chicago,IL,"Cook County",60654,US,"City of Chicago"
1/10/2019,P005915781,"3200 N CICERO ",CHICAGO,Illinois,"8-4-081(a)     Public Urination",41.93907,-87.747251,1,rooftop,3200,"N Cicero Ave",,,Chicago,IL,"Cook County",60641,US,"City of Chicago"
1/10/2019,P005874374,"1100 S STATE ST ",CHICAGO,Illinois,"8-4-081(a)     Public Urination",41.902092,-87.628557,1,rooftop,1100,"N State St",,,Chicago,IL,"Cook County",60610,US,"City of Chicago"
1/10/2019,P005908848,"900 W BELMONT ",CHICAGO,Illinois,"8-4-081(a)     Public Urination",41.940187,-87.651827,1,rooftop,900,"W Belmont Ave",,,Chicago,IL,"Cook County",60657,US,"City of Chicago"
1/10/2019,P005908849,"900 W BELMONT ",CHICAGO,Illinois,"8-4-081(a)     Public Urination",41.940187,-87.651827,1,rooftop,900,"W Belmont Ave",,,Chicago,IL,"Cook County",60657,US,"City of Chicago"
1/11/2019,P005154894,"3500 S MAPLEWOOD ",CHICAGO,Illinois,"8-4-081(a)     Public Urination",41.830088,-87.689063,1,rooftop,3500,"S Maplewood Ave",,,Chicago,IL,"Cook County",60632,US,"City of Chicago"
1/11/2019,P005506394,"10 E HUBBARD ",CHICAGO,Illinois,"8-4-081(a)     Public Urination",41.890219,-87.627707,1,range_interpolation,10,"E Hubbard St",,,Chicago,IL,"Cook County",60611,US,"TIGER/Line® dataset from the US Census Bureau"
1/11/2019,P005462600,"5100 S LAKE PARK ",CHICAGO,Illinois,"8-4-081(a)     Public Urination",41.802325,-87.58786,1,range_interpolation,5100,"S Lake Park Ave",,,Chicago,IL,"Cook County",60615,US,"TIGER/Line® dataset from the US Census Bureau"
1/11/2019,P005569083,"1900 E HAYES ",CHICAGO,Illinois,"8-4-081(a)     Public Urination",41.999827,-87.800896,0.4,street_center,,"W Hayes Ave",,,Chicago,IL,"Cook County",60631,US,"TIGER/Line® dataset from the US Census Bureau"
1/11/2019,P005474036,"700 N SPAULDING ",CHICAGO,Illinois,"8-4-081(a)     Public Urination",41.893851,-87.708941,1,range_interpolation,700,"N Spaulding Ave",,,Chicago,IL,"Cook County",60624,US,"TIGER/Line® dataset from the US Census Bureau"
1/11/2019,P005474066,"400 S PULASKI ",CHICAGO,Illinois,"8-4-081(a)     Public Urination",41.875117,-87.725484,1,range_interpolation,400,"S Pulaski Rd",,,Chicago,IL,"Cook County",60624,US,"TIGER/Line® dataset from the US Census Bureau"
1/11/2019,P005568162,"400 E 47TH STREET ",CHICAGO,Illinois,"8-4-081(a)     Public Urination",41.809604,-87.616162,1,rooftop,400,"E 47th St",,,Chicago,IL,"Cook County",60653,US,"City of Chicago"
1/11/2019,P005570775,"1300 E 57TH ST ",CHICAGO,Illinois,"8-4-081(a)     Public Urination",41.791613,-87.594838,1,range_interpolation,1300,"E 57th St",,,Chicago,IL,"Cook County",60637,US,"TIGER/Line® dataset from the US Census Bureau"
1/11/2019,P005474261,"2600 N CONGRESS ",CHICAGO,Illinois,"8-4-081(a)     Public Urination",41.874788,-87.691338,1,range_interpolation,2600,"W Congress Pkwy",,,Chicago,IL,"Cook County",60612,US,"TIGER/Line® dataset from the US Census Bureau"
1/11/2019,P005682545,"7200 S STONY ISLAND ",CHICAGO,Illinois,"8-4-081(a)     Public Urination",41.764082,-87.58628,1,range_interpolation,7200,"S Stony Island Ave",,,Chicago,IL,"Cook County",60649,US,"TIGER/Line® dataset from the US Census Bureau"
1/11/2019,P005642352,"2500 S DRAKE ",CHICAGO,Illinois,"8-4-081(a)     Public Urination",41.846099,-87.713977,1,rooftop,2500,"S Drake Ave",,,Chicago,IL,"Cook County",60623,US,Cook
1/11/2019,P005642353,"2500 S DRAKE ",CHICAGO,Illinois,"8-4-081(a)     Public Urination",41.846099,-87.713977,1,rooftop,2500,"S Drake Ave",,,Chicago,IL,"Cook County",60623,US,Cook
1/11/2019,P005641841,"3700 W ROOSEVELT RD ",CHICAGO,Illinois,"8-4-081(a)     Public Urination",41.866118,-87.717854,1,range_interpolation,3700,"W Roosevelt Rd",,,Chicago,IL,"Cook County",60624,US,"TIGER/Line® dataset from the US Census Bureau"
1/11/2019,P005669874,"10 S CTA PLATFORM ST ",CHICAGO,Illinois,"10-8-526/016-110-1.17  Urinating, Defecating or Causing the ",41.88531,-87.62213,0.33,place,,,,,Chicago,IL,"Cook County",60601,US,"TIGER/Line® dataset from the US Census Bureau"
1/11/2019,P005749785,"6900 S WESTERN ",CHICAGO,Illinois,"8-4-081(a)     Public Urination",41.768186,-87.683735,1,rooftop,6900,"S Western Ave",,,Chicago,IL,"Cook County",60629,US,"City of Chicago"
1/11/2019,P005908845,"2800 N CLARK ",CHICAGO,Illinois,"8-4-081(a)     Public Urination",41.93295,-87.644885,1,range_interpolation,2800,"N Clark St",,,Chicago,IL,"Cook County",60657,US,"TIGER/Line® dataset from the US Census Bureau"
1/11/2019,P005912615,"300 S STATE ST ",CHICAGO,Illinois,"8-4-081(a)     Public Urination",41.888374,-87.628794,1,rooftop,300,"N State St",,,Chicago,IL,"Cook County",60610,US,"City of Chicago"
1/12/2019,P005197402,"10 N SPRINGFIELD ",CHICAGO,Illinois,"8-4-081(a)     Public Urination",41.880648,-87.723385,0.7,range_interpolation,10,"S Springfield Ave",,,Chicago,IL,"Cook County",60624,US,"TIGER/Line® dataset from the US Census Bureau"
1/12/2019,P005574744,"1500 W MORSE ",CHICAGO,Illinois,"8-4-081(a)     Public Urination",42.007724,-87.667861,1,range_interpolation,1500,"W Morse Ave",,,Chicago,IL,"Cook County",60626,US,"TIGER/Line® dataset from the US Census Bureau"
1/12/2019,P005633212,"400 E 103RD ",CHICAGO,Illinois,"8-4-081(a)     Public Urination",41.707598,-87.613545,1,rooftop,400,"E 103rd St",,,Chicago,IL,"Cook County",60628,US,"City of Chicago"
1/12/2019,P005547212,"3100 W MONROE ST ",CHICAGO,Illinois,"8-4-081(a)     Public Urination",41.879538,-87.702935,1,range_interpolation,3100,"W Monroe St",,,Chicago,IL,"Cook County",60612,US,"TIGER/Line® dataset from the US Census Bureau"
1/12/2019,P005636875,"7900 S HALSTED ",CHICAGO,Illinois,"8-4-081(a)     Public Urination",41.750403,-87.64442,1,rooftop,7900,"S Halsted St",,,Chicago,IL,"Cook County",60620,US,"City of Chicago"
1/12/2019,P005683320,"2200 E 70TH ST ",CHICAGO,Illinois,"8-4-081(a)     Public Urination",41.768281,-87.571193,1,rooftop,2200,"E 70th St",,,Chicago,IL,"Cook County",60649,US,"City of Chicago"
1/12/2019,P005651987,"3400 W MADISON ST ",CHICAGO,Illinois,"8-4-081(a)     Public Urination",41.880766,-87.711005,1,range_interpolation,3400,"W Madison St",,,Chicago,IL,"Cook County",60624,US,"TIGER/Line® dataset from the US Census Bureau"
1/12/2019,P005671682,"10 N DEARBORN ",CHICAGO,Illinois,"8-4-081(a)     Public Urination",41.882434,-87.629706,1,rooftop,10,"N Dearborn St",,,Chicago,IL,"Cook County",60602,US,"City of Chicago"
1/12/2019,P005726661,"700 W 99TH ST ",CHICAGO,Illinois,"8-4-081(a)     Public Urination",41.714381,-87.64086,1,range_interpolation,700,"W 99th St",,,Chicago,IL,"Cook County",60643,US,"TIGER/Line® dataset from the US Census Bureau"
1/12/2019,P005623098,"7900 S HALSTED ST ",CHICAGO,Illinois,"8-4-081(a)     Public Urination",41.750403,-87.64442,1,rooftop,7900,"S Halsted St",,,Chicago,IL,"Cook County",60620,US,"City of Chicago"
1/12/2019,P005610014,"200 S LOTUS ",CHICAGO,Illinois,"8-4-081(a)     Public Urination",41.878235,-87.761754,1,range_interpolation,200,"S Lotus Ave",,,Chicago,IL,"Cook County",60644,US,"TIGER/Line® dataset from the US Census Bureau"
1/12/2019,P005751593,"7100 S STATE ",CHICAGO,Illinois,"8-4-081(a)     Public Urination",41.764143,-87.624881,1,range_interpolation,7100,"S State St",,,Chicago,IL,"Cook County",60621,US,"TIGER/Line® dataset from the US Census Bureau"
1/13/2019,P005155760,"4400 W FLOURNOY ",CHICAGO,Illinois,"8-4-081(a)     Public Urination",41.873089,-87.712429,0.74,nearest_rooftop_match,4438,"W Flournoy St",,,Chicago,IL,"Cook County",60624,US,"City of Chicago"
1/13/2019,P005208292,"3300 N HALSTED ST ",CHICAGO,Illinois,"8-4-081(a)     Public Urination",41.941936,-87.64968,1,rooftop,3300,"N Halsted St",,,Chicago,IL,"Cook County",60657,US,"City of Chicago"
1/13/2019,P005690044,"6400 S WESTERN ",CHICAGO,Illinois,"8-4-081(a)     Public Urination",41.776872,-87.683974,1,rooftop,6400,"S Western Ave",,,Chicago,IL,"Cook County",60629,US,"City of Chicago"
1/13/2019,P005633005,"10200 S MICHIGAN ",CHICAGO,Illinois,"8-4-081(a)     Public Urination",41.708909,-87.620312,1,rooftop,10200,"S Michigan Ave",,,Chicago,IL,"Cook County",60628,US,"City of Chicago"
1/13/2019,P005657870,"5400 S HALSTED ",CHICAGO,Illinois,"8-4-081(a)     Public Urination",41.795876,-87.645535,1,rooftop,5400,"S Halsted St",,,Chicago,IL,"Cook County",60609,US,"City of Chicago"
1/13/2019,P005610492,"5100 W MADISON ST ",CHICAGO,Illinois,"8-4-081(a)     Public Urination",41.881084,-87.752649,1,rooftop,5100,"W Madison St",,,Chicago,IL,"Cook County",60644,US,"City of Chicago"
1/13/2019,P005619880,"10 W HUBBARD ",CHICAGO,Illinois,"8-4-081(a)     Public Urination",41.890303,-87.628623,1,rooftop,10,"W Hubbard St",,,Chicago,IL,"Cook County",60654,US,"City of Chicago"
1/13/2019,P005750354,"6300 S SACRAMENTO ",CHICAGO,Illinois,"8-4-081(a)     Public Urination",41.778893,-87.698265,1,range_interpolation,6300,"S Sacramento Ave",,,Chicago,IL,"Cook County",60629,US,"TIGER/Line® dataset from the US Census Bureau"
1/13/2019,P005711201,"3300 W BELMONT ",CHICAGO,Illinois,"8-4-081(a)     Public Urination",41.93947,-87.708686,1,range_interpolation,3300,"W Belmont Ave",,,Chicago,IL,"Cook County",60618,US,"TIGER/Line® dataset from the US Census Bureau"
1/13/2019,P005712172,"100 W LAKE ST ",CHICAGO,Illinois,"8-4-081(a)     Public Urination",41.885592,-87.630975,1,range_interpolation,100,"W Lake St",,,Chicago,IL,"Cook County",60661,US,"TIGER/Line® dataset from the US Census Bureau"
1/13/2019,P005913621,"10 E CERMAK ",CHICAGO,Illinois,"8-4-081(a)     Public Urination",41.853133,-87.626744,1,rooftop,10,"E Cermak Rd",,,Chicago,IL,"Cook County",60616,US,"City of Chicago"
1/13/2019,P005919934,"10 W O HARE PLATFO ",CHICAGO,Illinois,"10-8-526/016-110-1.17  Urinating, Defecating or Causing the ",41.88531,-87.62213,0.33,place,,,,,Chicago,IL,"Cook County",60601,US,"TIGER/Line® dataset from the US Census Bureau"
1/14/2019,P005450870,"4800 W SUPERIOR ",CHICAGO,Illinois,"8-4-081(a)     Public Urination",41.893903,-87.745775,1,range_interpolation,4800,"W Superior St",,,Chicago,IL,"Cook County",60644,US,"TIGER/Line® dataset from the US Census Bureau"
1/14/2019,P005450871,"5100 W MADISON ",CHICAGO,Illinois,"8-4-081(a)     Public Urination",41.881084,-87.752649,1,rooftop,5100,"W Madison St",,,Chicago,IL,"Cook County",60644,US,"City of Chicago"
1/14/2019,P005569928,"5500 S PRAIRIE ",CHICAGO,Illinois,"8-4-081(a)     Public Urination",41.794163,-87.619508,0.8,rooftop,5500,"S Prairie Ave",,,Chicago,IL,"Cook County",60637,US,"City of Chicago"
1/14/2019,P005640967,"5400 S HALSTED ",CHICAGO,Illinois,"8-4-081(a)     Public Urination",41.795876,-87.645535,1,rooftop,5400,"S Halsted St",,,Chicago,IL,"Cook County",60609,US,"City of Chicago"
1/14/2019,P005541732,"11400 S CALUMET ",CHICAGO,Illinois,"8-4-081(a)     Public Urination",41.687184,-87.614782,1,rooftop,11400,"S Calumet Ave",,,Chicago,IL,"Cook County",60628,US,"City of Chicago"
1/14/2019,P005621081,"5600 S DAMEN ",CHICAGO,Illinois,"8-4-081(a)     Public Urination",41.791973,-87.674606,1,rooftop,5600,"S Damen Ave",,,Chicago,IL,"Cook County",60636,US,"City of Chicago"
1/14/2019,P005615094,"200 S STATE ",CHICAGO,Illinois,"8-4-081(a)     Public Urination",41.879311,-87.627709,1,range_interpolation,200,"S State St",,,Chicago,IL,"Cook County",60603,US,"TIGER/Line® dataset from the US Census Bureau"
1/15/2019,P005574745,"1900 W HOWARD ",CHICAGO,Illinois,"8-4-081(a)     Public Urination",42.019294,-87.67804,0.72,nearest_rooftop_match,1901,"W Howard St",,,Chicago,IL,"Cook County",60626,US,"City of Chicago"
1/15/2019,P005640968,"4700 S MARSHFIELD ST ",CHICAGO,Illinois,"8-4-081(a)     Public Urination",41.808435,-87.666184,1,range_interpolation,4700,"S Marshfield Ave",,,Chicago,IL,"Cook County",60609,US,"TIGER/Line® dataset from the US Census Bureau"
1/15/2019,P005651280,"1900 W HOWARD ",CHICAGO,Illinois,"8-4-081(a)     Public Urination",42.019294,-87.67804,0.72,nearest_rooftop_match,1901,"W Howard St",,,Chicago,IL,"Cook County",60626,US,"City of Chicago"
1/15/2019,P005640295,"1600 S KEDZIE ST ",CHICAGO,Illinois,"8-4-081(a)     Public Urination",41.85896,-87.705811,1,rooftop,1600,"S Kedzie Ave",,,Chicago,IL,"Cook County",60623,US,"City of Chicago"
1/15/2019,P005788611,"1100 W STATE ST ",CHICAGO,Illinois,"8-4-081(a)     Public Urination",41.902092,-87.628557,1,rooftop,1100,"N State St",,,Chicago,IL,"Cook County",60610,US,"City of Chicago"
1/15/2019,P005621082,"6200 S UNION ",CHICAGO,Illinois,"8-4-081(a)     Public Urination",41.784166,-87.64262,0.6,street_center,,"S Union Ave",,,Chicago,IL,"Cook County",60621,US,"TIGER/Line® dataset from the US Census Bureau"
1/15/2019,P005918858,"3200 W DOUGLAS BLVD ",CHICAGO,Illinois,"8-4-081(a)     Public Urination",41.862811,-87.70557,1,range_interpolation,3200,"W Douglas Blvd",,,Chicago,IL,"Cook County",60623,US,"TIGER/Line® dataset from the US Census Bureau"
1/16/2019,P005487017,"1000 W WILSON ",CHICAGO,Illinois,"8-4-081(a)     Public Urination",41.965279,-87.654786,1,range_interpolation,1000,"W Wilson Ave",,,Chicago,IL,"Cook County",60640,US,"TIGER/Line® dataset from the US Census Bureau"
1/16/2019,P005567515,"4600 S COTTAGE GROVE ",CHICAGO,Illinois,"8-4-081(a)     Public Urination",41.811193,-87.607008,1,rooftop,4600,"S Cottage Grove Ave",,,Chicago,IL,"Cook County",60653,US,"City of Chicago"
1/16/2019,P005596355,"2300 E 85TH ST ",CHICAGO,Illinois,"8-4-081(a)     Public Urination",41.740945,-87.5685,1,range_interpolation,2300,"E 85th St",,,Chicago,IL,"Cook County",60617,US,"TIGER/Line® dataset from the US Census Bureau"
1/16/2019,P005545865,"6800 S ASHLAND ",CHICAGO,Illinois,"8-4-081(a)     Public Urination",41.77025,-87.664354,1,rooftop,6800,"S Ashland Ave",,,Chicago,IL,"Cook County",60636,US,"City of Chicago"
1/16/2019,P005602545,"3300 W AINSLE ",CHICAGO,Illinois,"8-4-081(a)     Public Urination",41.970097,-87.710971,1,range_interpolation,3300,"W Ainslie St",,,Chicago,IL,"Cook County",60625,US,"TIGER/Line® dataset from the US Census Bureau"
1/16/2019,P005690280,"2300 W 68TH ST ",CHICAGO,Illinois,"8-4-081(a)     Public Urination",41.770024,-87.680856,1,range_interpolation,2300,"W 68th St",,,Chicago,IL,"Cook County",60636,US,"TIGER/Line® dataset from the US Census Bureau"
1/16/2019,P005670967,"4000 W LAKE ST ",CHICAGO,Illinois,"8-4-081(a)     Public Urination",41.885316,-87.725804,1,range_interpolation,4000,"W Lake St",,,Chicago,IL,"Cook County",60624,US,"TIGER/Line® dataset from the US Census Bureau"
1/16/2019,P005641768,"1900 S ST LOUIS ",CHICAGO,Illinois,"8-4-081(a)     Public Urination",41.855082,-87.712553,1,range_interpolation,1900,"S St Louis Ave",,,Chicago,IL,"Cook County",60623,US,"TIGER/Line® dataset from the US Census Bureau"
1/16/2019,P005787983,"7800 S WESTERN ",CHICAGO,Illinois,"8-4-081(a)     Public Urination",41.751615,-87.683037,1,range_interpolation,7800,"S Western Ave",,,Chicago,IL,"Cook County",60620,US,"TIGER/Line® dataset from the US Census Bureau"
1/16/2019,P005673954,"6300 S ASHLAND ",CHICAGO,Illinois,"8-4-081(a)     Public Urination",41.779179,-87.664623,1,rooftop,6300,"S Ashland Ave",,,Chicago,IL,"Cook County",60636,US,"City of Chicago"
1/16/2019,P005753450,"11900 S MICHIGAN ",CHICAGO,Illinois,"8-4-081(a)     Public Urination",41.6779,-87.620864,1,rooftop,11900,"S Michigan Ave",,,Chicago,IL,"Cook County",60628,US,"City of Chicago"
1/16/2019,P005913398,"10 W LOWER WACKER ",CHICAGO,Illinois,"8-4-081(a)     Public Urination",41.887023,-87.628258,1,range_interpolation,10,"W Lower Wacker Dr",,,Chicago,IL,"Cook County",60601,US,"TIGER/Line® dataset from the US Census Bureau"
1/17/2019,P005408480,"200 E 35TH ST ",CHICAGO,Illinois,"8-4-081(a)     Public Urination",41.831201,-87.62142,1,rooftop,200,"E 35th St",,,Chicago,IL,"Cook County",60616,US,"City of Chicago"
1/17/2019,P005552034,"2200 S KOSTNER ",CHICAGO,Illinois,"8-4-081(a)     Public Urination",41.851367,-87.734504,1,range_interpolation,2200,"S Kostner Ave",,,Chicago,IL,"Cook County",60623,US,"TIGER/Line® dataset from the US Census Bureau"
1/17/2019,P005685952,"6500 S KING ",CHICAGO,Illinois,"8-4-081(a)     Public Urination",41.776453,-87.615535,1,range_interpolation,6500,"S King Dr",,,Chicago,IL,"Cook County",60637,US,"TIGER/Line® dataset from the US Census Bureau"
1/17/2019,P005724907,"700 W 111TH ST ",CHICAGO,Illinois,"8-4-081(a)     Public Urination",41.692659,-87.640152,1,rooftop,700,"W 111th St",,,Chicago,IL,"Cook County",60628,US,"City of Chicago"
1/17/2019,P005713546,"7500 N PAULINA ",CHICAGO,Illinois,"8-4-081(a)     Public Urination",42.018437,-87.672627,0.78,nearest_rooftop_match,7478,"N Paulina St",,,Chicago,IL,"Cook County",60626,US,"City of Chicago"
1/17/2019,P005913188,"10 E WACKER ",CHICAGO,Illinois,"8-4-081(a)     Public Urination",41.886985,-87.627499,1,range_interpolation,10,"E Wacker Dr",,,Chicago,IL,"Cook County",60601,US,"TIGER/Line® dataset from the US Census Bureau"
1/18/2019,P005569084,"6300 S VERNON ",CHICAGO,Illinois,"8-4-081(a)     Public Urination",41.78011,-87.61441,1,range_interpolation,6300,"S Vernon Ave",,,Chicago,IL,"Cook County",60637,US,"TIGER/Line® dataset from the US Census Bureau"
1/18/2019,P005469753,"800 N HAMLIN ",CHICAGO,Illinois,"8-4-081(a)     Public Urination",41.895701,-87.72137,1,rooftop,800,"N Hamlin Ave",,,Chicago,IL,"Cook County",60651,US,"City of Chicago"
1/18/2019,P005558670,"4600 N ELSTON ",CHICAGO,Illinois,"8-4-081(a)     Public Urination",41.964427,-87.735294,1,rooftop,4600,"N Elston Ave",,,Chicago,IL,"Cook County",60630,US,"City of Chicago"
1/18/2019,P005473433,"100 N KARLOV ",CHICAGO,Illinois,"8-4-081(a)     Public Urination",41.882163,-87.728157,1,range_interpolation,100,"N Karlov Ave",,,Chicago,IL,"Cook County",60624,US,"TIGER/Line® dataset from the US Census Bureau"
1/18/2019,P005633904,"11000 S STATE ST ",CHICAGO,Illinois,"8-4-081(a)     Public Urination",41.694282,-87.623502,1,rooftop,11000,"S State St",,,Chicago,IL,"Cook County",60628,US,"City of Chicago"
1/18/2019,P005621044,"6800 S ASHLAND ",CHICAGO,Illinois,"8-4-081(a)     Public Urination",41.77025,-87.664354,1,rooftop,6800,"S Ashland Ave",,,Chicago,IL,"Cook County",60636,US,"City of Chicago"
1/18/2019,P005750210,"5000 S CICERO ",CHICAGO,Illinois,"8-4-081(a)     Public Urination",41.801997,-87.743088,1,range_interpolation,5000,"S Cicero Ave",,,Chicago,IL,"Cook County",60638,US,"TIGER/Line® dataset from the US Census Bureau"
1/18/2019,P005912828,"400 S CLINTON ",CHICAGO,Illinois,"8-4-081(a)     Public Urination",41.876319,-87.64125,1,rooftop,400,"S Clinton St",,,Chicago,IL,"Cook County",60607,US,Cook
1/18/2019,P005795856,"2500 W DEVON ",CHICAGO,Illinois,"8-4-081(a)     Public Urination",41.997949,-87.692567,1,rooftop,2500,"W Devon Ave",,,Chicago,IL,"Cook County",60645,US,"City of Chicago"
1/19/2019,P005464550,"5600 W CORCORAN ",CHICAGO,Illinois,"8-4-081(a)     Public Urination",41.887124,-87.765107,1,range_interpolation,5600,"W Corcoran Pl",,,Chicago,IL,"Cook County",60644,US,"TIGER/Line® dataset from the US Census Bureau"
1/19/2019,P005683321,"800 E 73RD ST ",CHICAGO,Illinois,"8-4-081(a)     Public Urination",41.762379,-87.605488,1,range_interpolation,800,"E 73rd St",,,Chicago,IL,"Cook County",60619,US,"TIGER/Line® dataset from the US Census Bureau"
1/19/2019,P005726474,"8700 S MAY ST ",CHICAGO,Illinois,"8-4-081(a)     Public Urination",41.735802,-87.652127,1,range_interpolation,8700,"S May St",,,Chicago,IL,"Cook County",60620,US,"TIGER/Line® dataset from the US Census Bureau"
1/19/2019,P005621176,"7100 S ASHLAND ",CHICAGO,Illinois,"8-4-081(a)     Public Urination",41.764722,-87.664278,1,rooftop,7100,"S Ashland Ave",,,Chicago,IL,"Cook County",60636,US,Cook
1/19/2019,P005609946,"5600 W CORCORAN ",CHICAGO,Illinois,"8-4-081(a)     Public Urination",41.887124,-87.765107,1,range_interpolation,5600,"W Corcoran Pl",,,Chicago,IL,"Cook County",60644,US,"TIGER/Line® dataset from the US Census Bureau"
1/19/2019,P005913173,"100 S STATE ST ",CHICAGO,Illinois,"8-4-081(a)     Public Urination",41.880537,-87.62816,1,rooftop,100,"S State St",,,Chicago,IL,"Cook County",60603,US,"City of Chicago"
1/20/2019,P005329720,"7200 S JEFFREY ",CHICAGO,Illinois,"8-4-081(a)     Public Urination",41.764097,-87.576631,1,rooftop,7200,"S Jeffery Blvd",,,Chicago,IL,"Cook County",60649,US,"City of Chicago"
1/20/2019,P005502564,"3000 N CICERO ",CHICAGO,Illinois,"8-4-081(a)     Public Urination",41.935385,-87.747167,1,rooftop,3000,"N Cicero Ave",,,Chicago,IL,"Cook County",60641,US,"City of Chicago"
1/20/2019,P005486693,"3800 N ASHLAND ",CHICAGO,Illinois,"8-4-081(a)     Public Urination",41.950804,-87.669355,1,rooftop,3800,"N Ashland Ave",,,Chicago,IL,"Cook County",60613,US,"City of Chicago"
1/20/2019,P005455515,"3700 W MADISON ",CHICAGO,Illinois,"8-4-081(a)     Public Urination",41.880687,-87.717145,1,range_interpolation,3700,"W Madison St",,,Chicago,IL,"Cook County",60624,US,"TIGER/Line® dataset from the US Census Bureau"
1/20/2019,P005450916,"300 N LARAMIE ",CHICAGO,Illinois,"8-4-081(a)     Public Urination",41.885788,-87.75526,1,range_interpolation,300,"N Laramie Ave",,,Chicago,IL,"Cook County",60644,US,"TIGER/Line® dataset from the US Census Bureau"
1/20/2019,P005563617,"5400 S HALSTED ",CHICAGO,Illinois,"8-4-081(a)     Public Urination",41.795876,-87.645535,1,rooftop,5400,"S Halsted St",,,Chicago,IL,"Cook County",60609,US,"City of Chicago"
1/20/2019,P005788671,"200 S DEARBORN ",CHICAGO,Illinois,"8-4-081(a)     Public Urination",41.879288,-87.629351,1,range_interpolation,200,"S Dearborn St",,,Chicago,IL,"Cook County",60605,US,"TIGER/Line® dataset from the US Census Bureau"
1/20/2019,P005712175,"200 S STATE ST ",CHICAGO,Illinois,"8-4-081(a)     Public Urination",41.879311,-87.627709,1,range_interpolation,200,"S State St",,,Chicago,IL,"Cook County",60603,US,"TIGER/Line® dataset from the US Census Bureau"
1/21/2019,P005502156,"4100 W MADISON ",CHICAGO,Illinois,"8-4-081(a)     Public Urination",41.881108,-87.728354,1,rooftop,4100,"W Madison St",,,Chicago,IL,"Cook County",60624,US,"City of Chicago"
1/21/2019,P005297555,"2200 N MILWAUKEE ",CHICAGO,Illinois,"8-4-081(a)     Public Urination",41.920648,-87.694191,1,rooftop,2200,"N Milwaukee Ave",,,Chicago,IL,"Cook County",60647,US,"City of Chicago"
1/21/2019,P005580561,"6700 S JEFFERY ",CHICAGO,Illinois,"8-4-081(a)     Public Urination",41.773305,-87.576487,1,range_interpolation,6700,"S Jeffery Ave",,,Chicago,IL,"Cook County",60649,US,"TIGER/Line® dataset from the US Census Bureau"
1/21/2019,P005558639,"4100 W MADISON ",CHICAGO,Illinois,"8-4-081(a)     Public Urination",41.881108,-87.728354,1,rooftop,4100,"W Madison St",,,Chicago,IL,"Cook County",60624,US,"City of Chicago"
1/21/2019,P005570781,"5700 S STATE ST ",CHICAGO,Illinois,"8-4-081(a)     Public Urination",41.790879,-87.625971,1,rooftop,5700,"S State St",,,Chicago,IL,"Cook County",60621,US,"City of Chicago"
1/21/2019,P005551095,"4000 W OGDEN ",CHICAGO,Illinois,"8-4-081(a)     Public Urination",41.850937,-87.724744,1,range_interpolation,4000,"W Ogden Ave",,,Chicago,IL,"Cook County",60623,US,"TIGER/Line® dataset from the US Census Bureau"
1/21/2019,P005680078,"400 N STATE ST ",CHICAGO,Illinois,"8-4-081(a)     Public Urination",41.889505,-87.628191,1,rooftop,400,"N State St",,,Chicago,IL,"Cook County",60654,US,"City of Chicago"
1/21/2019,P005690508,"6200 S ALBANY ",CHICAGO,Illinois,"8-4-081(a)     Public Urination",41.780656,-87.701104,1,rooftop,6200,"S Albany Ave",,,Chicago,IL,"Cook County",60629,US,"City of Chicago"
1/21/2019,P005672933,"7800 S LAFAYETTE ",CHICAGO,Illinois,"8-4-081(a)     Public Urination",41.752601,-87.625922,1,range_interpolation,7800,"S Lafayette Ave",,,Chicago,IL,"Cook County",60620,US,"TIGER/Line® dataset from the US Census Bureau"
1/21/2019,P005724491,"11400 S HALSTED ST ",CHICAGO,Illinois,"8-4-081(a)     Public Urination",41.686093,-87.642335,1,range_interpolation,11400,"S Halsted St",,,Chicago,IL,"Cook County",60628,US,"TIGER/Line® dataset from the US Census Bureau"
1/21/2019,P005788161,"100 N WELLS ",CHICAGO,Illinois,"8-4-081(a)     Public Urination",41.882633,-87.633884,1,rooftop,100,"N Wells St",,,Chicago,IL,"Cook County",60606,US,Cook
1/21/2019,P005703986,"3000 W ROOSEVELT ",CHICAGO,Illinois,"8-4-081(a)     Public Urination",41.866771,-87.700997,1,rooftop,3000,"W Roosevelt Rd",,,Chicago,IL,"Cook County",60612,US,"City of Chicago"
1/22/2019,P005173453,"9100 S COMMERICAL ",CHICAGO,Illinois,"8-4-081(a)     Public Urination",41.88531,-87.62213,0.33,place,,,,,Chicago,IL,"Cook County",60601,US,"TIGER/Line® dataset from the US Census Bureau"
1/22/2019,P005409142,"3500 S INDIANA ",CHICAGO,Illinois,"8-4-081(a)     Public Urination",41.830869,-87.622208,1,rooftop,3500,"S Indiana Ave",,,Chicago,IL,"Cook County",60616,US,"City of Chicago"
1/22/2019,P005570711,"300 E 51ST ST ",CHICAGO,Illinois,"8-4-081(a)     Public Urination",41.802268,-87.618957,1,rooftop,300,"E 51st St",,,Chicago,IL,"Cook County",60615,US,"City of Chicago"
1/22/2019,P005639697,"1200 S CALIFORNIA BD ",CHICAGO,Illinois,"8-4-081(a)     Public Urination",41.865485,-87.695878,1,range_interpolation,1200,"S California Blvd",,,Chicago,IL,"Cook County",60608,US,"TIGER/Line® dataset from the US Census Bureau"
1/22/2019,P005787459,"5100 S PULASKI ",CHICAGO,Illinois,"8-4-081(a)     Public Urination",41.801342,-87.720861,1,rooftop,5100,"S Pulaski Rd",,,Chicago,IL,"Cook County",60632,US,"City of Chicago"
1/22/2019,P005705257,"3400 W CHICAGO ",CHICAGO,Illinois,"8-4-081(a)     Public Urination",41.89573,-87.711605,1,rooftop,3400,"W Chicago Ave",,,Chicago,IL,"Cook County",60651,US,Cook
1/22/2019,P005913712,"200 W ROOSEVELT ",CHICAGO,Illinois,"8-4-081(a)     Public Urination",41.867237,-87.633535,1,range_interpolation,200,"W Roosevelt Rd",,,Chicago,IL,"Cook County",60608,US,"TIGER/Line® dataset from the US Census Bureau"
1/23/2019,P005480480,"7900 S PAULINA ",CHICAGO,Illinois,"8-4-081(a)     Public Urination",41.750174,-87.665863,1,range_interpolation,7900,"S Paulina St",,,Chicago,IL,"Cook County",60620,US,"TIGER/Line® dataset from the US Census Bureau"
1/23/2019,P005455541,"2800 W FLOURNOY ",CHICAGO,Illinois,"8-4-081(a)     Public Urination",41.872731,-87.696072,1,range_interpolation,2800,"W Flournoy St",,,Chicago,IL,"Cook County",60612,US,"TIGER/Line® dataset from the US Census Bureau"
1/23/2019,P005455542,"3900 W VAN BUREN ",CHICAGO,Illinois,"8-4-081(a)     Public Urination",41.875494,-87.723314,1,rooftop,3900,"W Van Buren St",,,Chicago,IL,"Cook County",60624,US,"City of Chicago"
1/23/2019,P005570114,"5700 S STATE ",CHICAGO,Illinois,"8-4-081(a)     Public Urination",41.790879,-87.625971,1,rooftop,5700,"S State St",,,Chicago,IL,"Cook County",60621,US,"City of Chicago"
1/23/2019,P005512724,"1000 W ARGYLE ",CHICAGO,Illinois,"8-4-081(a)     Public Urination",41.973162,-87.654927,1,range_interpolation,1000,"W Argyle St",,,Chicago,IL,"Cook County",60640,US,"TIGER/Line® dataset from the US Census Bureau"
1/23/2019,P005548766,"10100 S GREEN ST ",CHICAGO,Illinois,"8-4-081(a)     Public Urination",41.710401,-87.644484,1,rooftop,10100,"S Green St",,,Chicago,IL,"Cook County",60643,US,"City of Chicago"
1/23/2019,P005548590,"6200 S ASHLAND ",CHICAGO,Illinois,"8-4-081(a)     Public Urination",41.781166,-87.664657,1,rooftop,6200,"S Ashland Ave",,,Chicago,IL,"Cook County",60636,US,"City of Chicago"
1/23/2019,P005476300,"1100 S STATE ST ",CHICAGO,Illinois,"8-4-081(a)     Public Urination",41.902092,-87.628557,1,rooftop,1100,"N State St",,,Chicago,IL,"Cook County",60610,US,"City of Chicago"
1/23/2019,P005682547,"400 E 63RD ST ",CHICAGO,Illinois,"8-4-081(a)     Public Urination",41.780446,-87.615449,1,rooftop,400,"E 63rd St",,,Chicago,IL,"Cook County",60637,US,Cook
1/23/2019,P005610523,"400 N CICERO ",CHICAGO,Illinois,"8-4-081(a)     Public Urination",41.888059,-87.745916,1,rooftop,400,"N Cicero Ave",,,Chicago,IL,"Cook County",60644,US,"City of Chicago"
1/23/2019,P005651972,"1300 N CENTRAL ",CHICAGO,Illinois,"8-4-081(a)     Public Urination",41.90409,-87.766078,1,rooftop,1300,"N Central Ave",,,Chicago,IL,"Cook County",60651,US,"City of Chicago"
1/23/2019,P005787909,"4100 W 47TH ",CHICAGO,Illinois,"8-4-081(a)     Public Urination",41.808103,-87.726229,1,rooftop,4100,"W 47th St",,,Chicago,IL,"Cook County",60632,US,"City of Chicago"
1/23/2019,P005724471,"6900 S HALSTED ",CHICAGO,Illinois,"8-4-081(a)     Public Urination",41.768611,-87.644874,1,rooftop,6900,"S Halsted St",,,Chicago,IL,"Cook County",60621,US,"City of Chicago"
1/23/2019,P005788675,"200 S STATE ",CHICAGO,Illinois,"8-4-081(a)     Public Urination",41.879311,-87.627709,1,range_interpolation,200,"S State St",,,Chicago,IL,"Cook County",60603,US,"TIGER/Line® dataset from the US Census Bureau"
1/24/2019,P005569085,"700 E 65TH ST ",CHICAGO,Illinois,"8-4-081(a)     Public Urination",41.776884,-87.608305,1,range_interpolation,700,"E 65th St",,,Chicago,IL,"Cook County",60637,US,"TIGER/Line® dataset from the US Census Bureau"
1/24/2019,P005474988,"1000 N LAWNDALE ",CHICAGO,Illinois,"8-4-081(a)     Public Urination",41.89925,-87.719236,1,rooftop,1000,"N Lawndale Ave",,,Chicago,IL,"Cook County",60651,US,"City of Chicago"
1/24/2019,P005473754,"3900 W DIVISION ",CHICAGO,Illinois,"8-4-081(a)     Public Urination",41.902962,-87.72407,1,rooftop,3900,"W Division St",,,Chicago,IL,"Cook County",60651,US,"City of Chicago"
1/24/2019,P005682548,"300 E 75TH ST ",CHICAGO,Illinois,"8-4-081(a)     Public Urination",41.758575,-87.61805,1,rooftop,300,"E 75th St",,,Chicago,IL,"Cook County",60619,US,"City of Chicago"
1/24/2019,P005651518,"7700 N MARSHFIELD ",CHICAGO,Illinois,"8-4-081(a)     Public Urination",42.021373,-87.672233,1,rooftop,7700,"N Marshfield Ave",,,Chicago,IL,"Cook County",60626,US,"City of Chicago"
1/24/2019,P005614583,"100 N STATE ",CHICAGO,Illinois,"8-4-081(a)     Public Urination",41.880537,-87.62816,1,rooftop,100,"S State St",,,Chicago,IL,"Cook County",60603,US,"City of Chicago"
1/24/2019,P005641787,"1600 S KOSTNER ",CHICAGO,Illinois,"8-4-081(a)     Public Urination",41.857795,-87.735289,1,rooftop,1600,"S Kostner Ave",,,Chicago,IL,"Cook County",60623,US,"City of Chicago"
1/24/2019,P005719031,"3400 W BOACH ",CHICAGO,Illinois,"8-4-081(a)     Public Urination",41.907589,-87.712001,0.6,rooftop,3400,"W Beach Ave",,,Chicago,IL,"Cook County",60651,US,"City of Chicago"
1/24/2019,P005916993,"500 W ARLINGTON PL ",CHICAGO,Illinois,"8-4-081(a)     Public Urination",41.926859,-87.641335,1,range_interpolation,500,"W Arlington Pl",,,Chicago,IL,"Cook County",60614,US,"TIGER/Line® dataset from the US Census Bureau"
1/25/2019,P005547359,"7000 S ASHLAND ",CHICAGO,Illinois,"8-4-081(a)     Public Urination",41.766581,-87.663837,1,range_interpolation,7000,"S Ashland Ave",,,Chicago,IL,"Cook County",60636,US,"TIGER/Line® dataset from the US Census Bureau"
1/25/2019,P005682549,"6300 S VERNON ",CHICAGO,Illinois,"8-4-081(a)     Public Urination",41.78011,-87.61441,1,range_interpolation,6300,"S Vernon Ave",,,Chicago,IL,"Cook County",60637,US,"TIGER/Line® dataset from the US Census Bureau"
1/25/2019,P005610440,"5000 W MADISON ",CHICAGO,Illinois,"8-4-081(a)     Public Urination",41.880284,-87.750172,1,range_interpolation,5000,"W Madison St",,,Chicago,IL,"Cook County",60644,US,"TIGER/Line® dataset from the US Census Bureau"
1/25/2019,P005788678,"100 N WELLS ",CHICAGO,Illinois,"8-4-081(a)     Public Urination",41.882633,-87.633884,1,rooftop,100,"N Wells St",,,Chicago,IL,"Cook County",60606,US,Cook
1/25/2019,P005787097,"3300 W 63RD ST ",CHICAGO,Illinois,"8-4-081(a)     Public Urination",41.778784,-87.705558,1,range_interpolation,3300,"W 63rd St",,,Chicago,IL,"Cook County",60629,US,"TIGER/Line® dataset from the US Census Bureau"
1/26/2019,P005633214,"10300 S CORLISS ",CHICAGO,Illinois,"8-4-081(a)     Public Urination",41.70733,-87.604389,1,rooftop,10300,"S Corliss Ave",,,Chicago,IL,"Cook County",60628,US,"City of Chicago"
1/26/2019,P005775722,"10 W I 190 EXPRESSW ",CHICAGO,Illinois,"8-4-081(a)     Public Urination",41.956796,-87.735145,0.7,nearest_rooftop_match,1,"Kennedy Expy",,,Chicago,IL,"Cook County",60641,US,"City of Chicago"
1/26/2019,P005705258,"3700 W CHICAGO ",CHICAGO,Illinois,"8-4-081(a)     Public Urination",41.895724,-87.718977,1,rooftop,3700,"W Chicago Ave",,,Chicago,IL,"Cook County",60651,US,"City of Chicago"
1/27/2019,P005570119,"5700 S STATE ",CHICAGO,Illinois,"8-4-081(a)     Public Urination",41.790879,-87.625971,1,rooftop,5700,"S State St",,,Chicago,IL,"Cook County",60621,US,"City of Chicago"
1/27/2019,P005690509,"6100 S KEDZIE ",CHICAGO,Illinois,"8-4-081(a)     Public Urination",41.782456,-87.703245,1,range_interpolation,6100,"S Kedzie Ave",,,Chicago,IL,"Cook County",60629,US,"TIGER/Line® dataset from the US Census Bureau"
1/27/2019,P005641741,"1200 S FAIRFIELD ",CHICAGO,Illinois,"8-4-081(a)     Public Urination",41.866394,-87.694526,1,range_interpolation,1200,"S Fairfield Ave",,,Chicago,IL,"Cook County",60608,US,"TIGER/Line® dataset from the US Census Bureau"
1/27/2019,P005721511,"1100 S WHIPPLE ",CHICAGO,Illinois,"8-4-081(a)     Public Urination",41.86811,-87.702063,1,range_interpolation,1100,"S Whipple St",,,Chicago,IL,"Cook County",60612,US,"TIGER/Line® dataset from the US Census Bureau"
1/27/2019,P005913131,"1400 S CANAL ST ",CHICAGO,Illinois,"8-4-081(a)     Public Urination",41.863069,-87.639862,1,rooftop,1400,"S Canal St",,,Chicago,IL,"Cook County",60607,US,"City of Chicago"
1/27/2019,P005914026,"10 E HARRISON ST ",CHICAGO,Illinois,"8-4-081(a)     Public Urination",41.874263,-87.626738,1,rooftop,10,"E Harrison St",,,Chicago,IL,"Cook County",60605,US,"City of Chicago"
1/28/2019,P005455718,"300 S SPRINGFIELD ",CHICAGO,Illinois,"8-4-081(a)     Public Urination",41.876862,-87.723313,1,rooftop,300,"S Springfield Ave",,,Chicago,IL,"Cook County",60624,US,"City of Chicago"
1/28/2019,P005479490,"7900 S LAFAYETTE ",CHICAGO,Illinois,"8-4-081(a)     Public Urination",41.750775,-87.625823,1,range_interpolation,7900,"S Lafayette Ave",,,Chicago,IL,"Cook County",60620,US,"TIGER/Line® dataset from the US Census Bureau"
1/28/2019,P005559547,"4400 S PRINCETON ",CHICAGO,Illinois,"8-4-081(a)     Public Urination",41.814412,-87.63385,1,rooftop,4400,"S Princeton Ave",,,Chicago,IL,"Cook County",60609,US,"City of Chicago"
1/28/2019,P005616027,"2800 W MADISON ",CHICAGO,Illinois,"8-4-081(a)     Public Urination",41.881358,-87.69651,1,rooftop,2800,"W Madison St",,,Chicago,IL,"Cook County",60612,US,"City of Chicago"
1/28/2019,P005620798,"6300 S ASHLAND ",CHICAGO,Illinois,"8-4-081(a)     Public Urination",41.779179,-87.664623,1,rooftop,6300,"S Ashland Ave",,,Chicago,IL,"Cook County",60636,US,"City of Chicago"
1/28/2019,P005610860,"5000 W CHICAGO ",CHICAGO,Illinois,"8-4-081(a)     Public Urination",41.895278,-87.750919,1,rooftop,5000,"W Chicago Ave",,,Chicago,IL,"Cook County",60651,US,"City of Chicago"
1/28/2019,P005743319,"3100 S EMERALD ",CHICAGO,Illinois,"8-4-081(a)     Public Urination",41.837871,-87.645411,1,rooftop,3100,"S Emerald Ave",,,Chicago,IL,"Cook County",60616,US,"City of Chicago"
1/29/2019,P005543601,"1600 W GARFIELD ",CHICAGO,Illinois,"8-4-081(a)     Public Urination",41.793874,-87.664581,1,range_interpolation,1600,"W Garfield Blvd",,,Chicago,IL,"Cook County",60609,US,"TIGER/Line® dataset from the US Census Bureau"
1/29/2019,P005472303,"500 S KEDZIE ST ",CHICAGO,Illinois,"8-4-081(a)     Public Urination",41.874476,-87.706279,1,rooftop,500,"S Kedzie Ave",,,Chicago,IL,"Cook County",60612,US,"City of Chicago"
1/29/2019,P005657878,"4300 S TALMAN ",CHICAGO,Illinois,"8-4-081(a)     Public Urination",41.815451,-87.690753,1,range_interpolation,4300,"S Talman Ave",,,Chicago,IL,"Cook County",60632,US,"TIGER/Line® dataset from the US Census Bureau"
1/29/2019,P005604535,"2400 W 71ST ST ",CHICAGO,Illinois,"8-4-081(a)     Public Urination",41.764551,-87.683242,1,range_interpolation,2400,"W 71st St",,,Chicago,IL,"Cook County",60629,US,"TIGER/Line® dataset from the US Census Bureau"
1/30/2019,P005506577,"300 W CHICAGO ",CHICAGO,Illinois,"8-4-081(a)     Public Urination",41.896421,-87.635998,1,range_interpolation,300,"W Chicago Ave",,,Chicago,IL,"Cook County",60654,US,"TIGER/Line® dataset from the US Census Bureau"
1/30/2019,P005787832,"6900 S WESTERN ",CHICAGO,Illinois,"8-4-081(a)     Public Urination",41.768186,-87.683735,1,rooftop,6900,"S Western Ave",,,Chicago,IL,"Cook County",60629,US,"City of Chicago"
1/30/2019,P005724324,"7300 S ASHLAND ",CHICAGO,Illinois,"8-4-081(a)     Public Urination",41.761154,-87.664093,1,rooftop,7300,"S Ashland Ave",,,Chicago,IL,"Cook County",60636,US,"City of Chicago"
1/30/2019,P005787987,"2800 W MARQUETTE ",CHICAGO,Illinois,"8-4-081(a)     Public Urination",41.772086,-87.693605,1,rooftop,2800,"W Marquette Rd",,,Chicago,IL,"Cook County",60629,US,"City of Chicago"
1/30/2019,P005750355,"7000 S WESTERN ",CHICAGO,Illinois,"8-4-081(a)     Public Urination",41.766398,-87.683686,1,rooftop,7000,"S Western Ave",,,Chicago,IL,"Cook County",60629,US,"City of Chicago"
1/31/2019,P005458201,"4100 W MADISON ST ",CHICAGO,Illinois,"8-4-081(a)     Public Urination",41.881108,-87.728354,1,rooftop,4100,"W Madison St",,,Chicago,IL,"Cook County",60624,US,"City of Chicago"
1/31/2019,P005458202,"10 N KEELER ",CHICAGO,Illinois,"8-4-081(a)     Public Urination",41.880843,-87.730727,1,range_interpolation,10,"N Keeler Ave",,,Chicago,IL,"Cook County",60624,US,"TIGER/Line® dataset from the US Census Bureau"
1/31/2019,P005463361,"5600 W CHICAGO ",CHICAGO,Illinois,"8-4-081(a)     Public Urination",41.895083,-87.765762,1,rooftop,5600,"W Chicago Ave",,,Chicago,IL,"Cook County",60651,US,"City of Chicago"
1/31/2019,P005569222,"4000 S COTTAGE GROVE ",CHICAGO,Illinois,"8-4-081(a)     Public Urination",41.821352,-87.607275,1,rooftop,4000,"S Cottage Grove Ave",,,Chicago,IL,"Cook County",60653,US,"City of Chicago"
1/31/2019,P005651397,"6400 N WESTERN ",CHICAGO,Illinois,"8-4-081(a)     Public Urination",41.997879,-87.689882,1,range_interpolation,6400,"N Western Ave",,,Chicago,IL,"Cook County",60645,US,"TIGER/Line® dataset from the US Census Bureau"
2/1/2019,P005450874,"4900 W CHICAGO ",CHICAGO,Illinois,"8-4-081(a)     Public Urination",41.895296,-87.748576,1,rooftop,4900,"W Chicago Ave",,,Chicago,IL,"Cook County",60651,US,"City of Chicago"
2/1/2019,P005480363,"8300 S HALSTED ST ",CHICAGO,Illinois,"8-4-081(a)     Public Urination",41.743233,-87.644243,1,rooftop,8300,"S Halsted St",,,Chicago,IL,"Cook County",60620,US,"City of Chicago"
2/1/2019,P005455516,"4100 W MADISON ",CHICAGO,Illinois,"8-4-081(a)     Public Urination",41.881108,-87.728354,1,rooftop,4100,"W Madison St",,,Chicago,IL,"Cook County",60624,US,"City of Chicago"
2/1/2019,P005570713,"300 E 51ST ST ",CHICAGO,Illinois,"8-4-081(a)     Public Urination",41.802268,-87.618957,1,rooftop,300,"E 51st St",,,Chicago,IL,"Cook County",60615,US,"City of Chicago"
2/1/2019,P005651810,"1700 W HOWARD ",CHICAGO,Illinois,"8-4-081(a)     Public Urination",42.019552,-87.672885,0.74,nearest_rooftop_match,1660,"W Howard St",,,Chicago,IL,"Cook County",60626,US,Cook
2/1/2019,P005739143,"4800 N CLARK ST ",CHICAGO,Illinois,"8-4-081(a)     Public Urination",41.969049,-87.667496,1,range_interpolation,4800,"N Clark St",,,Chicago,IL,"Cook County",60640,US,"TIGER/Line® dataset from the US Census Bureau"
2/1/2019,P005613490,"300 N LWER MICHIGAN ",CHICAGO,Illinois,"8-4-081(a)     Public Urination",41.88531,-87.62213,0.33,place,,,,,Chicago,IL,"Cook County",60601,US,"TIGER/Line® dataset from the US Census Bureau"
2/1/2019,P005916836,"3300 N HALSTED ST ",CHICAGO,Illinois,"8-4-081(a)     Public Urination",41.941936,-87.64968,1,rooftop,3300,"N Halsted St",,,Chicago,IL,"Cook County",60657,US,"City of Chicago"
2/1/2019,P005913401,"300 N LWER MICHIGAN ",CHICAGO,Illinois,"8-4-081(a)     Public Urination",41.88531,-87.62213,0.33,place,,,,,Chicago,IL,"Cook County",60601,US,"TIGER/Line® dataset from the US Census Bureau"
2/2/2019,P005067604,"4000 W VAN BUREN ",CHICAGO,Illinois,"8-4-081(a)     Public Urination",41.875117,-87.725484,1,range_interpolation,4000,"W Van Buren St",,,Chicago,IL,"Cook County",60624,US,"TIGER/Line® dataset from the US Census Bureau"
2/2/2019,P005354319,"10 S CENTRAL ",CHICAGO,Illinois,"8-4-081(a)     Public Urination",41.88016,-87.765013,1,range_interpolation,10,"S Central Ave",,,Chicago,IL,"Cook County",60644,US,"TIGER/Line® dataset from the US Census Bureau"
2/2/2019,P005460238,"5600 W CORCHORAN ",CHICAGO,Illinois,"8-4-081(a)     Public Urination",41.88531,-87.62213,0.33,place,,,,,Chicago,IL,"Cook County",60601,US,"TIGER/Line® dataset from the US Census Bureau"
2/2/2019,P005595603,"2600 E 79TH ST ",CHICAGO,Illinois,"8-4-081(a)     Public Urination",41.752097,-87.561072,1,rooftop,2600,"E 79th St",,,Chicago,IL,"Cook County",60649,US,"City of Chicago"
2/2/2019,P005667791,"300 W MONTROSE ",CHICAGO,Illinois,"8-4-081(a)     Public Urination",41.961174,-87.709473,0.6,street_center,,"W Montrose Ave",,,Chicago,IL,"Cook County",60618,US,"TIGER/Line® dataset from the US Census Bureau"
2/2/2019,P005668661,"3300 N HALSTED ",CHICAGO,Illinois,"8-4-081(a)     Public Urination",41.941936,-87.64968,1,rooftop,3300,"N Halsted St",,,Chicago,IL,"Cook County",60657,US,"City of Chicago"
2/2/2019,P005685822,"6300 S VERNON ",CHICAGO,Illinois,"8-4-081(a)     Public Urination",41.78011,-87.61441,1,range_interpolation,6300,"S Vernon Ave",,,Chicago,IL,"Cook County",60637,US,"TIGER/Line® dataset from the US Census Bureau"
2/2/2019,P005641748,"3000 S KARLOV ",CHICAGO,Illinois,"8-4-081(a)     Public Urination",41.838561,-87.727183,1,rooftop,3000,"S Karlov Ave",,,Chicago,IL,"Cook County",60623,US,"City of Chicago"
2/2/2019,P005670356,"500 N STATE ST ",CHICAGO,Illinois,"8-4-081(a)     Public Urination",41.891113,-87.628248,1,rooftop,500,"N State St",,,Chicago,IL,"Cook County",60610,US,"City of Chicago"
2/2/2019,P005725002,"10 W 111TH PL ",CHICAGO,Illinois,"8-4-081(a)     Public Urination",41.691891,-87.62355,1,rooftop,10,"W 111th Pl",,,Chicago,IL,"Cook County",60628,US,Cook
2/2/2019,P005724454,"100 W 103RD ST ",CHICAGO,Illinois,"8-4-081(a)     Public Urination",41.706982,-87.625918,1,range_interpolation,100,"W 103rd St",,,Chicago,IL,"Cook County",60628,US,"TIGER/Line® dataset from the US Census Bureau"
2/2/2019,P005787237,"2400 W 70 ST ",CHICAGO,Illinois,"8-4-081(a)     Public Urination",41.766367,-87.683293,1,range_interpolation,2400,"W 70th St",,,Chicago,IL,"Cook County",60629,US,"TIGER/Line® dataset from the US Census Bureau"
2/2/2019,P005610442,"300 N LARAMIE ",CHICAGO,Illinois,"8-4-081(a)     Public Urination",41.885788,-87.75526,1,range_interpolation,300,"N Laramie Ave",,,Chicago,IL,"Cook County",60644,US,"TIGER/Line® dataset from the US Census Bureau"
2/2/2019,P005621217,"6300 S ASHLAND ",CHICAGO,Illinois,"8-4-081(a)     Public Urination",41.779179,-87.664623,1,rooftop,6300,"S Ashland Ave",,,Chicago,IL,"Cook County",60636,US,"City of Chicago"
2/2/2019,P005610861,"1100 S AUSTIN BLVD ",CHICAGO,Illinois,"8-4-081(a)     Public Urination",41.866473,-87.774316,0.9,range_interpolation,1100,"S Austin Blvd",,,"Oak Park",IL,"Cook County",60304,US,"TIGER/Line® dataset from the US Census Bureau"
2/2/2019,P005710998,"4400 N ST LOUIS ",CHICAGO,Illinois,"8-4-081(a)     Public Urination",41.961248,-87.715586,1,range_interpolation,4400,"N St Louis Ave",,,Chicago,IL,"Cook County",60625,US,"TIGER/Line® dataset from the US Census Bureau"
2/2/2019,P005916228,"3200 N SHEFFIELD ",CHICAGO,Illinois,"8-4-081(a)     Public Urination",41.940061,-87.654105,1,range_interpolation,3200,"N Sheffield Ave",,,Chicago,IL,"Cook County",60657,US,"TIGER/Line® dataset from the US Census Bureau"
2/3/2019,P005499940,"4500 W DIVISION ",CHICAGO,Illinois,"8-4-081(a)     Public Urination",41.903943,-87.739058,1,rooftop,4500,"W Division St",,,Chicago,IL,"Cook County",60651,US,"City of Chicago"
2/3/2019,P005494823,"3100 N MILWAUKEE ",CHICAGO,Illinois,"8-4-081(a)     Public Urination",41.937385,-87.721591,1,rooftop,3100,"N Milwaukee Ave",,,Chicago,IL,"Cook County",60618,US,"City of Chicago"
2/3/2019,P005450875,"900 N LONG ",CHICAGO,Illinois,"8-4-081(a)     Public Urination",41.896865,-87.760703,1,range_interpolation,900,"N Long Ave",,,Chicago,IL,"Cook County",60651,US,"TIGER/Line® dataset from the US Census Bureau"
2/3/2019,P005554795,"2100 S KEELER ",CHICAGO,Illinois,"8-4-081(a)     Public Urination",41.853279,-87.729681,1,range_interpolation,2100,"S Keeler Ave",,,Chicago,IL,"Cook County",60623,US,"TIGER/Line® dataset from the US Census Bureau"
2/3/2019,P005641516,"2100 S PULASKI ",CHICAGO,Illinois,"8-4-081(a)     Public Urination",41.853375,-87.725161,1,rooftop,2100,"S Pulaski Rd",,,Chicago,IL,"Cook County",60623,US,"City of Chicago"
2/3/2019,P005570782,"5500 S STATE ST ",CHICAGO,Illinois,"8-4-081(a)     Public Urination",41.794092,-87.626068,1,rooftop,5500,"S State St",,,Chicago,IL,"Cook County",60621,US,"City of Chicago"
2/3/2019,P005652341,"2000 W PARKSIDE ",CHICAGO,Illinois,"8-4-081(a)     Public Urination",41.916997,-87.767304,0.9,rooftop,2000,"N Parkside Ave",,,Chicago,IL,"Cook County",60639,US,"City of Chicago"
2/3/2019,P005745089,"10 E LAKE ST ",CHICAGO,Illinois,"8-4-081(a)     Public Urination",41.886058,-87.627362,1,rooftop,10,"E Lake St",,,Chicago,IL,"Cook County",60601,US,"City of Chicago"
2/3/2019,P005916837,"3300 N HALSTED ST ",CHICAGO,Illinois,"8-4-081(a)     Public Urination",41.941936,-87.64968,1,rooftop,3300,"N Halsted St",,,Chicago,IL,"Cook County",60657,US,"City of Chicago"
2/3/2019,P005912263,"5300 S LAKE PARK ",CHICAGO,Illinois,"8-4-081(a)     Public Urination",41.799413,-87.58731,1,range_interpolation,5300,"S Lake Park Ave",,,Chicago,IL,"Cook County",60615,US,"TIGER/Line® dataset from the US Census Bureau"
2/4/2019,P005082759,"3900 W LEXINGTON ",CHICAGO,Illinois,"8-4-081(a)     Public Urination",41.871805,-87.72323,1,rooftop,3900,"W Lexington St",,,Chicago,IL,"Cook County",60624,US,"City of Chicago"
2/4/2019,P005082760,"3900 W LEXINGTON ST ",CHICAGO,Illinois,"8-4-081(a)     Public Urination",41.871805,-87.72323,1,rooftop,3900,"W Lexington St",,,Chicago,IL,"Cook County",60624,US,"City of Chicago"
2/4/2019,P005297146,"1500 N HONORE ",CHICAGO,Illinois,"8-4-081(a)     Public Urination",41.908829,-87.674813,1,range_interpolation,1500,"N Honore St",,,Chicago,IL,"Cook County",60622,US,"TIGER/Line® dataset from the US Census Bureau"
2/4/2019,P005354371,"5800 W WEST END ",CHICAGO,Illinois,"8-4-081(a)     Public Urination",41.884047,-87.769896,1,range_interpolation,5800,"W West End Ave",,,Chicago,IL,"Cook County",60644,US,"TIGER/Line® dataset from the US Census Bureau"
2/4/2019,P005408993,"100 E 35TH ST ",CHICAGO,Illinois,"8-4-081(a)     Public Urination",41.831356,-87.622817,1,rooftop,100,"E 35th St",,,Chicago,IL,"Cook County",60616,US,"City of Chicago"
2/4/2019,P005640553,"1500 S CHRISTIANA ",CHICAGO,Illinois,"8-4-081(a)     Public Urination",41.860716,-87.709517,1,rooftop,1500,"S Christiana Ave",,,Chicago,IL,"Cook County",60623,US,"City of Chicago"
2/4/2019,P005640554,"1600 S KEDZIE ",CHICAGO,Illinois,"8-4-081(a)     Public Urination",41.85896,-87.705811,1,rooftop,1600,"S Kedzie Ave",,,Chicago,IL,"Cook County",60623,US,"City of Chicago"
2/4/2019,P005731691,"700 N RIDGEWAY ",CHICAGO,Illinois,"8-4-081(a)     Public Urination",41.893867,-87.72014,1,rooftop,700,"N Ridgeway Ave",,,Chicago,IL,"Cook County",60624,US,"City of Chicago"
2/5/2019,P005202180,"4200 W MADISON ",CHICAGO,Illinois,"8-4-081(a)     Public Urination",41.881079,-87.730894,1,rooftop,4200,"W Madison St",,,Chicago,IL,"Cook County",60624,US,"City of Chicago"
2/5/2019,P005481041,"800 W 76TH ST ",CHICAGO,Illinois,"8-4-081(a)     Public Urination",41.755937,-87.644183,1,range_interpolation,800,"W 76th St",,,Chicago,IL,"Cook County",60620,US,"TIGER/Line® dataset from the US Census Bureau"
2/5/2019,P005753609,"400 E 63RD ST ",CHICAGO,Illinois,"8-4-081(a)     Public Urination",41.780446,-87.615449,1,rooftop,400,"E 63rd St",,,Chicago,IL,"Cook County",60637,US,Cook
2/5/2019,P005725031,"1500 W 63RD ST ",CHICAGO,Illinois,"8-4-081(a)     Public Urination",41.779772,-87.662011,1,rooftop,1500,"W 63rd St",,,Chicago,IL,"Cook County",60636,US,"City of Chicago"
2/5/2019,P005605449,"3200 W 61ST PL ",CHICAGO,Illinois,"8-4-081(a)     Public Urination",41.78155,-87.703214,1,range_interpolation,3200,"W 61st Pl",,,Chicago,IL,"Cook County",60629,US,"TIGER/Line® dataset from the US Census Bureau"
2/5/2019,P005914116,"10 E VAN BUREN ",CHICAGO,Illinois,"8-4-081(a)     Public Urination",41.877092,-87.627447,1,range_interpolation,10,"E Van Buren St",,,Chicago,IL,"Cook County",60605,US,"TIGER/Line® dataset from the US Census Bureau"
2/5/2019,P005913531,"100  UNKNOWN ",CHICAGO,Illinois,"8-4-081(a)     Public Urination",41.88531,-87.62213,0.33,place,,,,,Chicago,IL,"Cook County",60601,US,"TIGER/Line® dataset from the US Census Bureau"
2/6/2019,P005614584,"300 N LOWER MICHIGA ",CHICAGO,Illinois,"8-4-081(a)     Public Urination",41.88531,-87.62213,0.33,place,,,,,Chicago,IL,"Cook County",60601,US,"TIGER/Line® dataset from the US Census Bureau"
2/6/2019,P005636541,"11800 S MICHIGAN ",CHICAGO,Illinois,"8-4-081(a)     Public Urination",41.679728,-87.620568,0.9,range_interpolation,11800,"S Michigan Ave",,,Chicago,IL,"Cook County",60628,US,"TIGER/Line® dataset from the US Census Bureau"
2/6/2019,P005542932,"7000 S HALSTED ",CHICAGO,Illinois,"8-4-081(a)     Public Urination",41.766863,-87.644829,1,rooftop,7000,"S Halsted St",,,Chicago,IL,"Cook County",60621,US,"City of Chicago"
2/6/2019,P005619935,"6300 S VERNON ",CHICAGO,Illinois,"8-4-081(a)     Public Urination",41.78011,-87.61441,1,range_interpolation,6300,"S Vernon Ave",,,Chicago,IL,"Cook County",60637,US,"TIGER/Line® dataset from the US Census Bureau"
2/6/2019,P005757043,"200 W CERMAK RD ",CHICAGO,Illinois,"8-4-081(a)     Public Urination",41.853074,-87.631981,1,range_interpolation,200,"W Cermak Rd",,,Chicago,IL,"Cook County",60616,US,"TIGER/Line® dataset from the US Census Bureau"
2/6/2019,P005703953,"400 N STATE ST ",CHICAGO,Illinois,"8-4-081(a)     Public Urination",41.889505,-87.628191,1,rooftop,400,"N State St",,,Chicago,IL,"Cook County",60654,US,"City of Chicago"
2/6/2019,P005703990,"2400 S PULASKI ",CHICAGO,Illinois,"8-4-081(a)     Public Urination",41.847707,-87.72501,1,rooftop,2400,"S Pulaski Rd",,,Chicago,IL,"Cook County",60623,US,"City of Chicago"
2/7/2019,P005450876,"5100 W WASHINGTON ",CHICAGO,Illinois,"8-4-081(a)     Public Urination",41.882108,-87.75304,1,rooftop,5100,"W Washington Blvd",,,Chicago,IL,"Cook County",60644,US,"City of Chicago"
2/7/2019,P005409184,"300 E 35TH STREET ",CHICAGO,Illinois,"8-4-081(a)     Public Urination",41.831345,-87.618962,1,rooftop,300,"E 35th St",,,Chicago,IL,"Cook County",60616,US,"City of Chicago"
2/7/2019,P005465464,"300 N LARAMIE ",CHICAGO,Illinois,"8-4-081(a)     Public Urination",41.885788,-87.75526,1,range_interpolation,300,"N Laramie Ave",,,Chicago,IL,"Cook County",60644,US,"TIGER/Line® dataset from the US Census Bureau"
2/7/2019,P005471723,"4000 W GLADYS ",CHICAGO,Illinois,"8-4-081(a)     Public Urination",41.876447,-87.725744,1,rooftop,4000,"W Gladys Ave",,,Chicago,IL,"Cook County",60624,US,"City of Chicago"
2/7/2019,P005595605,"7900 S EAST END ",CHICAGO,Illinois,"8-4-081(a)     Public Urination",41.751369,-87.582892,0.9,range_interpolation,7900,"SE End Ave",,,Chicago,IL,"Cook County",60617,US,"TIGER/Line® dataset from the US Census Bureau"
2/7/2019,P005671472,"200 S STATE ",CHICAGO,Illinois,"10-8-526/016-110-1.17  Urinating, Defecating or Causing the ",41.879311,-87.627709,1,range_interpolation,200,"S State St",,,Chicago,IL,"Cook County",60603,US,"TIGER/Line® dataset from the US Census Bureau"
2/7/2019,P005643266,"3500 W ROOSEVELT ",CHICAGO,Illinois,"8-4-081(a)     Public Urination",41.866169,-87.712981,1,range_interpolation,3500,"W Roosevelt Rd",,,Chicago,IL,"Cook County",60624,US,"TIGER/Line® dataset from the US Census Bureau"
2/7/2019,P005787261,"5300 S KEDZIE ",CHICAGO,Illinois,"8-4-081(a)     Public Urination",41.796942,-87.704006,1,rooftop,5300,"S Kedzie Ave",,,Chicago,IL,"Cook County",60632,US,"City of Chicago"
2/7/2019,P005788837,"10 E ROOSEVELT ",CHICAGO,Illinois,"8-4-081(a)     Public Urination",41.867624,-87.627264,1,range_interpolation,10,"E Roosevelt Dr",,,Chicago,IL,"Cook County",60605,US,"TIGER/Line® dataset from the US Census Bureau"
2/7/2019,P005918748,"6300 S EVANS ",CHICAGO,Illinois,"8-4-081(a)     Public Urination",41.780241,-87.607188,1,range_interpolation,6300,"S Evans Ave",,,Chicago,IL,"Cook County",60637,US,"TIGER/Line® dataset from the US Census Bureau"
2/7/2019,P005913142,"200 N COLUMBUS ",CHICAGO,Illinois,"8-4-081(a)     Public Urination",41.886156,-87.621291,1,rooftop,200,"N Columbus Dr",,,Chicago,IL,"Cook County",60601,US,"City of Chicago"
2/7/2019,P005913404,"100 W LAKE ",CHICAGO,Illinois,"8-4-081(a)     Public Urination",41.90363,-87.908634,1,rooftop,100,"W Lake St",,,Northlake,IL,"Cook County",60164,US,Cook
2/8/2019,P003319501,"300 W 79TH ST ",CHICAGO,Illinois,"8-4-081(a)     Public Urination",41.750672,-87.631878,1,range_interpolation,300,"W 79th St",,,Chicago,IL,"Cook County",60620,US,"TIGER/Line® dataset from the US Census Bureau"
2/8/2019,P005597237,"100  UNKNOWN ",CHICAGO,Illinois,"8-4-081(a)     Public Urination",41.88531,-87.62213,0.33,place,,,,,Chicago,IL,"Cook County",60601,US,"TIGER/Line® dataset from the US Census Bureau"
2/8/2019,P005595606,"8400 S SOUTH CHICAGO ",CHICAGO,Illinois,"8-4-081(a)     Public Urination",41.743301,-87.574674,1,range_interpolation,8400,"S South Chicago Ave",,,Chicago,IL,"Cook County",60617,US,"TIGER/Line® dataset from the US Census Bureau"
2/8/2019,P005677534,"100 W DIVISION ",CHICAGO,Illinois,"8-4-081(a)     Public Urination",41.90375,-87.631444,1,range_interpolation,100,"W Division St",,,Chicago,IL,"Cook County",60610,US,"TIGER/Line® dataset from the US Census Bureau"
2/8/2019,P005641320,"2700 W 25TH ST ",CHICAGO,Illinois,"8-4-081(a)     Public Urination",41.846751,-87.693017,1,rooftop,2700,"W 25th St",,,Chicago,IL,"Cook County",60608,US,"City of Chicago"
2/8/2019,P005724770,"12000 S MICHIGAN ",CHICAGO,Illinois,"8-4-081(a)     Public Urination",41.676073,-87.62081,1,rooftop,12000,"S Michigan Ave",,,Chicago,IL,"Cook County",60628,US,"City of Chicago"
2/8/2019,P005788303,"300 S DEARBORN ",CHICAGO,Illinois,"8-4-081(a)     Public Urination",41.878016,-87.629298,1,range_interpolation,300,"S Dearborn St",,,Chicago,IL,"Cook County",60605,US,"TIGER/Line® dataset from the US Census Bureau"
2/8/2019,P005726433,"2400 W 103RD ST ",CHICAGO,Illinois,"8-4-081(a)     Public Urination",41.706225,-87.681619,1,range_interpolation,2400,"W 103rd St",,,Chicago,IL,"Cook County",60655,US,"TIGER/Line® dataset from the US Census Bureau"
2/8/2019,P005703402,"6300 W 63RD ",CHICAGO,Illinois,"8-4-081(a)     Public Urination",41.777117,-87.778973,1,rooftop,6300,"W 63rd Pl",,,Chicago,IL,"Cook County",60638,US,"City of Chicago"
2/8/2019,P005788287,"1600 W LAKE ",CHICAGO,Illinois,"8-4-081(a)     Public Urination",41.885587,-87.667236,1,rooftop,1600,"W Lake St",,,Chicago,IL,"Cook County",60607,US,"City of Chicago"
2/8/2019,P005788694,"100 W LAKE ST ",CHICAGO,Illinois,"10-8-526/016-110-1.17  Urinating, Defecating or Causing the ",41.885592,-87.630975,1,range_interpolation,100,"W Lake St",,,Chicago,IL,"Cook County",60661,US,"TIGER/Line® dataset from the US Census Bureau"
2/8/2019,P005746820,"3200 N CICERO ",CHICAGO,Illinois,"8-4-081(a)     Public Urination",41.93907,-87.747251,1,rooftop,3200,"N Cicero Ave",,,Chicago,IL,"Cook County",60641,US,"City of Chicago"
2/8/2019,P005918610,"10 W KINZIE ",CHICAGO,Illinois,"8-4-081(a)     Public Urination",41.889495,-87.628931,1,rooftop,10,"W Kinzie St",,,Chicago,IL,"Cook County",60654,US,"City of Chicago"
2/8/2019,P005918619,"2700 W 63RD ST ",CHICAGO,Illinois,"8-4-081(a)     Public Urination",41.779003,-87.690958,1,range_interpolation,2700,"W 63rd St",,,Chicago,IL,"Cook County",60629,US,"TIGER/Line® dataset from the US Census Bureau"
2/9/2019,P004191455,"7900 S COTTAGE ",CHICAGO,Illinois,"8-4-081(a)     Public Urination",41.751136,-87.605215,0.8,range_interpolation,7900,"S Cottage Grove Ave",,,Chicago,IL,"Cook County",60619,US,"TIGER/Line® dataset from the US Census Bureau"
2/9/2019,P005160210,"13200 S LANGLEY ",CHICAGO,Illinois,"8-4-081(a)     Public Urination",41.655589,-87.605356,0.9,rooftop,13200,"S Langley Ave",,,Chicago,IL,"Cook County",60827,US,Cook
2/9/2019,P005197345,"4000 W VAN BUREN ",CHICAGO,Illinois,"8-4-081(a)     Public Urination",41.875117,-87.725484,1,range_interpolation,4000,"W Van Buren St",,,Chicago,IL,"Cook County",60624,US,"TIGER/Line® dataset from the US Census Bureau"
2/9/2019,P005568920,"5700 S STATE ST ",CHICAGO,Illinois,"8-4-081(a)     Public Urination",41.790879,-87.625971,1,rooftop,5700,"S State St",,,Chicago,IL,"Cook County",60621,US,"City of Chicago"
2/9/2019,P005558705,"3700 W SUNNYSIDE ",CHICAGO,Illinois,"8-4-081(a)     Public Urination",41.962707,-87.720539,1,range_interpolation,3700,"W Sunnyside Ave",,,Chicago,IL,"Cook County",60625,US,"TIGER/Line® dataset from the US Census Bureau"
2/9/2019,P005471666,"3100 W HARRISON ST ",CHICAGO,Illinois,"8-4-081(a)     Public Urination",41.87398,-87.703691,1,rooftop,3100,"W Harrison St",,,Chicago,IL,"Cook County",60612,US,"City of Chicago"
2/9/2019,P005616031,"2200 W MAYPOLE ",CHICAGO,Illinois,"8-4-081(a)     Public Urination",41.884062,-87.68214,1,range_interpolation,2200,"W Maypole Ave",,,Chicago,IL,"Cook County",60612,US,"TIGER/Line® dataset from the US Census Bureau"
2/9/2019,P005668784,"3400 N BROADWAY ",CHICAGO,Illinois,"8-4-081(a)     Public Urination",41.943833,-87.645035,1,range_interpolation,3400,"N Broadway St",,,Chicago,IL,"Cook County",60657,US,"TIGER/Line® dataset from the US Census Bureau"
2/9/2019,P005690560,"6200 S ARTESIAN ",CHICAGO,Illinois,"8-4-081(a)     Public Urination",41.780943,-87.685269,1,rooftop,6200,"S Artesian Ave",,,Chicago,IL,"Cook County",60629,US,"City of Chicago"
2/9/2019,P005689989,"7800 S WESTERN ",CHICAGO,Illinois,"8-4-081(a)     Public Urination",41.751615,-87.683037,1,range_interpolation,7800,"S Western Ave",,,Chicago,IL,"Cook County",60620,US,"TIGER/Line® dataset from the US Census Bureau"
2/9/2019,P005651521,"1100 W GRANVILLE ",CHICAGO,Illinois,"8-4-081(a)     Public Urination",41.994807,-87.658769,1,rooftop,1100,"W Granville Ave",,,Chicago,IL,"Cook County",60660,US,"City of Chicago"
2/9/2019,P005726607,"9900 S EMERALD ",CHICAGO,Illinois,"8-4-081(a)     Public Urination",41.714099,-87.642164,1,rooftop,9900,"S Emerald Ave",,,Chicago,IL,"Cook County",60628,US,"City of Chicago"
2/9/2019,P005701541,"9800 S MICHIGAN ",CHICAGO,Illinois,"8-4-081(a)     Public Urination",41.71615,-87.620883,1,rooftop,9800,"S Michigan Ave",,,Chicago,IL,"Cook County",60628,US,"City of Chicago"
2/9/2019,P005610863,"200 S LAVERGNE ",CHICAGO,Illinois,"8-4-081(a)     Public Urination",41.878394,-87.749348,1,range_interpolation,200,"S Lavergne Ave",,,Chicago,IL,"Cook County",60644,US,"TIGER/Line® dataset from the US Census Bureau"
2/9/2019,P005744978,"1300 S CANAL ",CHICAGO,Illinois,"8-4-081(a)     Public Urination",41.865412,-87.63934,1,range_interpolation,1300,"S Canal St",,,Chicago,IL,"Cook County",60606,US,"TIGER/Line® dataset from the US Census Bureau"
2/9/2019,P005749910,"6200 S WESTERN ",CHICAGO,Illinois,"8-4-081(a)     Public Urination",41.780755,-87.68408,1,rooftop,6200,"S Western Ave",,,Chicago,IL,"Cook County",60636,US,"City of Chicago"
2/10/2019,P005484393,"2300 S WHIPPLE ",CHICAGO,Illinois,"8-4-081(a)     Public Urination",41.849847,-87.701875,1,rooftop,2300,"S Whipple St",,,Chicago,IL,"Cook County",60623,US,"City of Chicago"
2/10/2019,P005451061,"500 S LOTUS ",CHICAGO,Illinois,"8-4-081(a)     Public Urination",41.873713,-87.761589,1,range_interpolation,500,"S Lotus Ave",,,Chicago,IL,"Cook County",60644,US,"TIGER/Line® dataset from the US Census Bureau"
2/10/2019,P005466531,"3900 W 26TH ST ",CHICAGO,Illinois,"8-4-081(a)     Public Urination",41.844536,-87.722342,1,rooftop,3900,"W 26th St",,,Chicago,IL,"Cook County",60623,US,"City of Chicago"
2/10/2019,P005569049,"3900 W CHICAGO ",CHICAGO,Illinois,"8-4-081(a)     Public Urination",41.895679,-87.723815,1,rooftop,3900,"W Chicago Ave",,,Chicago,IL,"Cook County",60651,US,"City of Chicago"
2/10/2019,P005528765,"2700 W AUGUSTA BLVD ",CHICAGO,Illinois,"8-4-081(a)     Public Urination",41.899152,-87.694327,1,range_interpolation,2700,"W Augusta Blvd",,,Chicago,IL,"Cook County",60622,US,"TIGER/Line® dataset from the US Census Bureau"
2/10/2019,P005686324,"2100 E 71ST ",CHICAGO,Illinois,"8-4-081(a)     Public Urination",41.766423,-87.573605,1,rooftop,2100,"E 71st St",,,Chicago,IL,"Cook County",60649,US,"City of Chicago"
2/10/2019,P005685863,"1200 E 67TH ST ",CHICAGO,Illinois,"8-4-081(a)     Public Urination",41.773385,-87.59604,1,range_interpolation,1200,"E 67th St",,,Chicago,IL,"Cook County",60637,US,"TIGER/Line® dataset from the US Census Bureau"
2/10/2019,P005689990,"6300 S CALIFORNIA ",CHICAGO,Illinois,"8-4-081(a)     Public Urination",41.778965,-87.693392,1,range_interpolation,6300,"S California Ave",,,Chicago,IL,"Cook County",60629,US,"TIGER/Line® dataset from the US Census Bureau"
2/10/2019,P005685653,"7100 S STATE ST ",CHICAGO,Illinois,"8-4-081(a)     Public Urination",41.764143,-87.624881,1,range_interpolation,7100,"S State St",,,Chicago,IL,"Cook County",60621,US,"TIGER/Line® dataset from the US Census Bureau"
2/10/2019,P005724427,"200 W 103RD ST ",CHICAGO,Illinois,"8-4-081(a)     Public Urination",41.707381,-87.628551,1,rooftop,200,"W 103rd St",,,Chicago,IL,"Cook County",60628,US,"City of Chicago"
2/10/2019,P005725005,"10 E 119TH ST ",CHICAGO,Illinois,"8-4-081(a)     Public Urination",41.678178,-87.622516,1,range_interpolation,10,"E 119th St",,,Chicago,IL,"Cook County",60628,US,"TIGER/Line® dataset from the US Census Bureau"
2/10/2019,P005787463,"4300 W 47TH ",CHICAGO,Illinois,"8-4-081(a)     Public Urination",41.809605,-87.731827,1,rooftop,4300,"W 47th St",,,Chicago,IL,"Cook County",60632,US,"City of Chicago"
2/10/2019,P005619391,"400 N STATE ",CHICAGO,Illinois,"8-4-081(a)     Public Urination",41.889505,-87.628191,1,rooftop,400,"N State St",,,Chicago,IL,"Cook County",60654,US,"City of Chicago"
2/10/2019,P005750215,"3200 W 63RD ST ",CHICAGO,Illinois,"8-4-081(a)     Public Urination",41.778823,-87.703136,1,range_interpolation,3200,"W 63rd St",,,Chicago,IL,"Cook County",60629,US,"TIGER/Line® dataset from the US Census Bureau"
2/10/2019,P005913298,"100 N STATE ST ",CHICAGO,Illinois,"8-4-081(a)     Public Urination",41.880537,-87.62816,1,rooftop,100,"S State St",,,Chicago,IL,"Cook County",60603,US,"City of Chicago"
2/10/2019,P005795736,"1600 W HOWARD ",CHICAGO,Illinois,"8-4-081(a)     Public Urination",42.01924,-87.673733,1,range_interpolation,1600,"W Howard St",,,Chicago,IL,"Cook County",60626,US,"TIGER/Line® dataset from the US Census Bureau"
2/10/2019,P005922450,"11900 S STEWART ",CHICAGO,Illinois,"8-4-081(a)     Public Urination",41.67777,-87.632272,1,range_interpolation,11900,"S Stewart Ave",,,Chicago,IL,"Cook County",60628,US,"TIGER/Line® dataset from the US Census Bureau"
2/11/2019,P005483025,"4000 W 115TH ST ",CHICAGO,Illinois,"8-4-081(a)     Public Urination",41.683816,-87.720064,1,range_interpolation,4000,"W 115th St",,,Chicago,IL,"Cook County",60655,US,"TIGER/Line® dataset from the US Census Bureau"
2/11/2019,P005451001,"1100 N AUSTON ",CHICAGO,Illinois,"8-4-081(a)     Public Urination",41.900318,-87.775301,0.9,range_interpolation,1100,"N Austin Blvd",,,"Oak Park",IL,"Cook County",60302,US,"TIGER/Line® dataset from the US Census Bureau"
2/11/2019,P005546093,"200 W 73RD ST ",CHICAGO,Illinois,"8-4-081(a)     Public Urination",41.761658,-87.62969,1,range_interpolation,200,"W 73rd St",,,Chicago,IL,"Cook County",60621,US,"TIGER/Line® dataset from the US Census Bureau"
2/11/2019,P005547378,"7500 S STEWART ST ",CHICAGO,Illinois,"8-4-081(a)     Public Urination",41.757942,-87.634838,1,rooftop,7500,"S Stewart Ave",,,Chicago,IL,"Cook County",60620,US,"City of Chicago"
2/11/2019,P005686215,"7500 S STONY ISLAND ",CHICAGO,Illinois,"8-4-081(a)     Public Urination",41.758613,-87.586135,1,range_interpolation,7500,"S Stony Island Ave",,,Chicago,IL,"Cook County",60649,US,"TIGER/Line® dataset from the US Census Bureau"
2/11/2019,P005610525,"4800 W CHICAGO ",CHICAGO,Illinois,"8-4-081(a)     Public Urination",41.895246,-87.746187,1,rooftop,4800,"W Chicago Ave",,,Chicago,IL,"Cook County",60651,US,"City of Chicago"
2/11/2019,P005724428,"11900 S MICHIGAN ",CHICAGO,Illinois,"8-4-081(a)     Public Urination",41.6779,-87.620864,1,rooftop,11900,"S Michigan Ave",,,Chicago,IL,"Cook County",60628,US,"City of Chicago"
2/11/2019,P005917050,"4400 N BROADWAY ",CHICAGO,Illinois,"8-4-081(a)     Public Urination",41.962555,-87.656447,1,rooftop,4400,"N Broadway St",,,Chicago,IL,"Cook County",60640,US,"City of Chicago"
2/12/2019,P005788853,"300 S STATE ",CHICAGO,Illinois,"8-4-081(a)     Public Urination",41.888374,-87.628794,1,rooftop,300,"N State St",,,Chicago,IL,"Cook County",60610,US,"City of Chicago"
2/12/2019,P005609948,"300 N CENTRAL ",CHICAGO,Illinois,"8-4-081(a)     Public Urination",41.885945,-87.765466,1,rooftop,300,"N Central Ave",,,Chicago,IL,"Cook County",60644,US,"City of Chicago"
2/12/2019,P005746993,"1100 W VAN BUREN ",CHICAGO,Illinois,"8-4-081(a)     Public Urination",41.876412,-87.654531,1,range_interpolation,1100,"W Van Buren St",,,Chicago,IL,"Cook County",60607,US,"TIGER/Line® dataset from the US Census Bureau"
2/12/2019,P005918749,"1200 N STATE ST ",CHICAGO,Illinois,"8-4-081(a)     Public Urination",41.904097,-87.629056,1,rooftop,1200,"N State Pkwy",,,Chicago,IL,"Cook County",60610,US,"City of Chicago"
2/13/2019,P005151479,"7100 S MERRIL ",CHICAGO,Illinois,"8-4-081(a)     Public Urination",41.766043,-87.572612,1,range_interpolation,7100,"S Merrill Ave",,,Chicago,IL,"Cook County",60649,US,"TIGER/Line® dataset from the US Census Bureau"
2/13/2019,P005499757,"800 N LARAMIE ",CHICAGO,Illinois,"8-4-081(a)     Public Urination",41.895086,-87.755598,1,range_interpolation,800,"N Laramie Ave",,,Chicago,IL,"Cook County",60651,US,"TIGER/Line® dataset from the US Census Bureau"
2/13/2019,P005570012,"4600 S VINCENNES ",CHICAGO,Illinois,"8-4-081(a)     Public Urination",41.811092,-87.61383,1,range_interpolation,4600,"S Vincennes Ave",,,Chicago,IL,"Cook County",60653,US,"TIGER/Line® dataset from the US Census Bureau"
2/13/2019,P005528141,"2200 W DIVISION ST ",CHICAGO,Illinois,"8-4-081(a)     Public Urination",41.903428,-87.682372,1,rooftop,2200,"W Division St",,,Chicago,IL,"Cook County",60622,US,"City of Chicago"
2/13/2019,P005569224,"4700 S FORRESTVILLE ",CHICAGO,Illinois,"8-4-081(a)     Public Urination",41.809291,-87.61267,1,range_interpolation,4700,"S Forrestville Ave",,,Chicago,IL,"Cook County",60615,US,"TIGER/Line® dataset from the US Census Bureau"
2/13/2019,P005788417,"7500 N PAULINA ",CHICAGO,Illinois,"8-4-081(a)     Public Urination",42.018437,-87.672627,0.78,nearest_rooftop_match,7478,"N Paulina St",,,Chicago,IL,"Cook County",60626,US,"City of Chicago"
2/13/2019,P005725248,"11100 S HALSTED ",CHICAGO,Illinois,"8-4-081(a)     Public Urination",41.692205,-87.642377,1,range_interpolation,11100,"S Halsted St",,,Chicago,IL,"Cook County",60628,US,"TIGER/Line® dataset from the US Census Bureau"
2/13/2019,P005621084,"7200 S SANGAMON ",CHICAGO,Illinois,"8-4-081(a)     Public Urination",41.763203,-87.648358,1,rooftop,7200,"S Sangamon St",,,Chicago,IL,"Cook County",60621,US,"City of Chicago"
2/13/2019,P005794206,"6400 S KILPATRICK ",CHICAGO,Illinois,"8-4-081(a)     Public Urination",41.776497,-87.740145,1,rooftop,6400,"S Kilpatrick Ave",,,Chicago,IL,"Cook County",60629,US,"City of Chicago"
2/14/2019,P005485890,"9700 S HALSTED ",CHICAGO,Illinois,"8-4-081(a)     Public Urination",41.717471,-87.64349,1,rooftop,9700,"S Halsted St",,,Chicago,IL,"Cook County",60643,US,"City of Chicago"
2/14/2019,P005569225,"100 N 51ST ST ",CHICAGO,Illinois,"8-4-081(a)     Public Urination",41.802223,-87.622131,0.9,rooftop,100,"E 51st St",,,Chicago,IL,"Cook County",60615,US,"City of Chicago"
2/14/2019,P005667661,"1000 W WILSON ",CHICAGO,Illinois,"8-4-081(a)     Public Urination",41.965279,-87.654786,1,range_interpolation,1000,"W Wilson Ave",,,Chicago,IL,"Cook County",60640,US,"TIGER/Line® dataset from the US Census Bureau"
2/14/2019,P005667630,"1100 W LAWRENCE ",CHICAGO,Illinois,"8-4-081(a)     Public Urination",41.969436,-87.658038,1,rooftop,1100,"W Lawrence Ave",,,Chicago,IL,"Cook County",60640,US,"City of Chicago"
2/14/2019,P005640557,"1900 S LAWNDALE ",CHICAGO,Illinois,"8-4-081(a)     Public Urination",41.854951,-87.717918,1,rooftop,1900,"S Lawndale Ave",,,Chicago,IL,"Cook County",60623,US,"City of Chicago"
2/14/2019,P005725033,"600 W 79TH ST ",CHICAGO,Illinois,"8-4-081(a)     Public Urination",41.751735,-87.639495,1,rooftop,600,"W 79th St",,,Chicago,IL,"Cook County",60620,US,"City of Chicago"
2/14/2019,P005623104,"9400 S INDIANA ",CHICAGO,Illinois,"8-4-081(a)     Public Urination",41.723485,-87.619028,1,range_interpolation,9400,"S Indiana Ave",,,Chicago,IL,"Cook County",60619,US,"TIGER/Line® dataset from the US Census Bureau"
2/15/2019,P005557646,"4900 N HARDING ",CHICAGO,Illinois,"8-4-081(a)     Public Urination",41.970275,-87.727243,1,rooftop,4900,"N Harding Ave",,,Chicago,IL,"Cook County",60625,US,"City of Chicago"
2/15/2019,P005679439,"10 W ELM ST ",CHICAGO,Illinois,"8-4-081(a)     Public Urination",41.903404,-87.628953,1,rooftop,10,"W Elm St",,,Chicago,IL,"Cook County",60610,US,"City of Chicago"
2/15/2019,P005686098,"6100 S UNIVERSITY ",CHICAGO,Illinois,"8-4-081(a)     Public Urination",41.783998,-87.597909,1,range_interpolation,6100,"S University Ave",,,Chicago,IL,"Cook County",60637,US,"TIGER/Line® dataset from the US Census Bureau"
2/15/2019,P005725257,"700 W 79TH ST ",CHICAGO,Illinois,"8-4-081(a)     Public Urination",41.750906,-87.641928,1,rooftop,700,"W 79th St",,,Chicago,IL,"Cook County",60620,US,Cook
2/16/2019,P005252823,"7100 S STATE ST ",CHICAGO,Illinois,"8-4-081(a)     Public Urination",41.764143,-87.624881,1,range_interpolation,7100,"S State St",,,Chicago,IL,"Cook County",60621,US,"TIGER/Line® dataset from the US Census Bureau"
2/16/2019,P005501292,"500 W GRAND ",CHICAGO,Illinois,"8-4-081(a)     Public Urination",41.891803,-87.653824,1,rooftop,500,"W Grand Ave",,,"Evergreen Park",IL,"Cook County",60642,US,"City of Chicago"
2/16/2019,P005504046,"2000 S WESTERN ",CHICAGO,Illinois,"8-4-081(a)     Public Urination",41.854593,-87.686746,1,rooftop,2000,"S Western Ave",,,Chicago,IL,"Cook County",60608,US,"City of Chicago"
2/16/2019,P005641517,"3300 S HOMAN ",CHICAGO,Illinois,"8-4-081(a)     Public Urination",41.833318,-87.71205,1,rooftop,3300,"S Homan Ave",,,Chicago,IL,"Cook County",60623,US,"City of Chicago"
2/16/2019,P005474866,"3900 W MADISON ",CHICAGO,Illinois,"8-4-081(a)     Public Urination",41.881325,-87.723871,1,rooftop,3900,"W Madison St",,,Chicago,IL,"Cook County",60624,US,"City of Chicago"
2/16/2019,P005578607,"1500 E 67TH ST ",CHICAGO,Illinois,"8-4-081(a)     Public Urination",41.77358,-87.588616,1,rooftop,1500,"E 67th St",,,Chicago,IL,"Cook County",60637,US,"City of Chicago"
2/16/2019,P005570592,"4300 S LAKE PARK ",CHICAGO,Illinois,"8-4-081(a)     Public Urination",41.816754,-87.598881,1,range_interpolation,4300,"S Lake Park Ave",,,Chicago,IL,"Cook County",60653,US,"TIGER/Line® dataset from the US Census Bureau"
2/16/2019,P005476132,"8200 S COTTAGE GROVE ",CHICAGO,Illinois,"8-4-081(a)     Public Urination",41.74564,-87.605465,1,rooftop,8200,"S Cottage Grove Ave",,,Chicago,IL,"Cook County",60619,US,"City of Chicago"
2/16/2019,P005690025,"5100 S SAWYER ",CHICAGO,Illinois,"8-4-081(a)     Public Urination",41.800653,-87.704988,1,range_interpolation,5100,"S Sawyer Ave",,,Chicago,IL,"Cook County",60632,US,"TIGER/Line® dataset from the US Census Bureau"
2/16/2019,P005679590,"100 W CHICAGO ",CHICAGO,Illinois,"8-4-081(a)     Public Urination",41.896486,-87.631245,1,range_interpolation,100,"W Chicago Ave",,,Chicago,IL,"Cook County",60654,US,"TIGER/Line® dataset from the US Census Bureau"
2/16/2019,P005642053,"1200 S KEDVALE ",CHICAGO,Illinois,"8-4-081(a)     Public Urination",41.86584,-87.729051,1,rooftop,1200,"S Kedvale Ave",,,Chicago,IL,"Cook County",60623,US,"City of Chicago"
2/16/2019,P005787242,"6300 S MAPLEWOOD ",CHICAGO,Illinois,"8-4-081(a)     Public Urination",41.779054,-87.687304,1,range_interpolation,6300,"S Maplewood Ave",,,Chicago,IL,"Cook County",60629,US,"TIGER/Line® dataset from the US Census Bureau"
2/16/2019,P005787464,"3300 W 47TH ST ",CHICAGO,Illinois,"8-4-081(a)     Public Urination",41.807941,-87.706387,1,range_interpolation,3300,"W 47th St",,,Chicago,IL,"Cook County",60632,US,"TIGER/Line® dataset from the US Census Bureau"
2/16/2019,P005725258,"10 W 111TH ST ",CHICAGO,Illinois,"8-4-081(a)     Public Urination",41.692732,-87.623275,1,range_interpolation,10,"W 111th St",,,Chicago,IL,"Cook County",60628,US,"TIGER/Line® dataset from the US Census Bureau"
2/16/2019,P005725271,"11100 S KING DR ",CHICAGO,Illinois,"8-4-081(a)     Public Urination",41.814827,-87.616478,0.6,street_center,,"S Martin Luther King Jr Dr",,,Chicago,IL,"Cook County",60653,US,"TIGER/Line® dataset from the US Census Bureau"
2/16/2019,P005621182,"7100 S HALSTED ST ",CHICAGO,Illinois,"8-4-081(a)     Public Urination",41.764944,-87.644777,1,rooftop,7100,"S Halsted St",,,Chicago,IL,"Cook County",60621,US,"City of Chicago"
2/16/2019,P005621183,"7100 S HALSTED ST ",CHICAGO,Illinois,"8-4-081(a)     Public Urination",41.764944,-87.644777,1,rooftop,7100,"S Halsted St",,,Chicago,IL,"Cook County",60621,US,"City of Chicago"
2/16/2019,P005615459,"1600 S LEAVITT ",CHICAGO,Illinois,"8-4-081(a)     Public Urination",41.910542,-87.682346,0.7,range_interpolation,1600,"N Leavitt St",,,Chicago,IL,"Cook County",60647,US,"TIGER/Line® dataset from the US Census Bureau"
2/17/2019,P005487140,"3400 N HALSTED ",CHICAGO,Illinois,"8-4-081(a)     Public Urination",41.943778,-87.649728,1,rooftop,3400,"N Halsted St",,,Chicago,IL,"Cook County",60657,US,"City of Chicago"
2/17/2019,P005485611,"9000 S JUSTINE ",CHICAGO,Illinois,"8-4-081(a)     Public Urination",41.730202,-87.661689,1,range_interpolation,9000,"S Justine St",,,Chicago,IL,"Cook County",60620,US,"TIGER/Line® dataset from the US Census Bureau"
2/17/2019,P005511989,"4800 W 63RD ST ",CHICAGO,Illinois,"8-4-081(a)     Public Urination",41.778278,-87.742292,1,range_interpolation,4800,"W 63rd St",,,Chicago,IL,"Cook County",60638,US,"TIGER/Line® dataset from the US Census Bureau"
2/17/2019,P005474867,"1000 N MONTICELLO ",CHICAGO,Illinois,"8-4-081(a)     Public Urination",41.899227,-87.718017,1,rooftop,1000,"N Monticello Ave",,,Chicago,IL,"Cook County",60651,US,"City of Chicago"
2/17/2019,P005615719,"1600 W CERMAK ",CHICAGO,Illinois,"8-4-081(a)     Public Urination",41.852595,-87.666426,1,rooftop,1600,"W Cermak Rd",,,Chicago,IL,"Cook County",60608,US,"City of Chicago"
2/17/2019,P005641274,"3700 W 26TH ST ",CHICAGO,Illinois,"8-4-081(a)     Public Urination",41.844199,-87.717232,1,range_interpolation,3700,"W 26th St",,,Chicago,IL,"Cook County",60623,US,"TIGER/Line® dataset from the US Census Bureau"
2/17/2019,P005726756,"10500 S VINCENNES ",CHICAGO,Illinois,"8-4-081(a)     Public Urination",41.702977,-87.657801,1,rooftop,10500,"S Vincennes Ave",,,Chicago,IL,"Cook County",60643,US,"City of Chicago"
2/17/2019,P005731692,"400 S PULASKI ",CHICAGO,Illinois,"8-4-081(a)     Public Urination",41.875117,-87.725484,1,range_interpolation,400,"S Pulaski Rd",,,Chicago,IL,"Cook County",60624,US,"TIGER/Line® dataset from the US Census Bureau"
2/17/2019,P005731694,"4000 W VAN BUREN ",CHICAGO,Illinois,"8-4-081(a)     Public Urination",41.875117,-87.725484,1,range_interpolation,4000,"W Van Buren St",,,Chicago,IL,"Cook County",60624,US,"TIGER/Line® dataset from the US Census Bureau"
2/17/2019,P005610581,"300 N LARAMIE ",CHICAGO,Illinois,"8-4-081(a)     Public Urination",41.885788,-87.75526,1,range_interpolation,300,"N Laramie Ave",,,Chicago,IL,"Cook County",60644,US,"TIGER/Line® dataset from the US Census Bureau"
2/17/2019,P005620530,"6900 S HALSTED ST ",CHICAGO,Illinois,"8-4-081(a)     Public Urination",41.768611,-87.644874,1,rooftop,6900,"S Halsted St",,,Chicago,IL,"Cook County",60621,US,"City of Chicago"
